,City Name,Latitude,Longitude,Country,UTC +/- (hours),Max Temperature,Humidity,Cloudiness,Wind Speed
0,Ushuaia,-54.8,-68.3,AR,-3.0,42.13,84,92,3.33
1,Kloulklubed,7.0419,134.2556,PW,9.0,84.13,85,94,21.12
2,Butaritari,3.0707,172.7902,KI,12.0,83.55,74,99,14.9
3,Syedove,47.0768,38.156,UA,3.0,65.91,73,97,10.16
4,Mahébourg,-20.4081,57.7,MU,4.0,79.83,78,40,10.29
5,Tiksi,71.6872,128.8694,RU,9.0,30.13,94,100,5.01
6,Punta Arenas,-53.15,-70.9167,CL,-3.0,44.65,69,43,8.81
7,Rikitea,-23.1203,-134.9692,PF,-9.0,78.93,83,86,24.34
8,Lüderitz,-26.6481,15.1594,NA,2.0,80.78,37,0,20.58
9,Yellowknife,62.456,-114.3525,CA,-6.0,33.12,74,100,14.54
10,Chunskiy,56.0815,99.6342,RU,8.0,52.47,54,58,12.82
11,Mataura,-46.1927,168.8643,NZ,12.0,58.86,76,21,5.17
12,Kapaa,22.0752,-159.319,US,-10.0,79.16,71,22,16.2
13,Bredasdorp,-34.5322,20.0403,ZA,2.0,77.85,35,3,9.04
14,Khatanga,71.9667,102.5,RU,7.0,32.61,99,20,7.36
15,Kyren,51.6828,102.1408,RU,8.0,41.88,86,100,5.7
16,Ahipara,-35.1667,173.1667,NZ,12.0,64.08,52,0,10.11
17,Bambous Virieux,-20.3428,57.7575,MU,4.0,79.66,78,42,10.04
18,Ribeira Grande,38.5167,-28.7,PT,0.0,62.67,88,100,20.96
19,Leshukonskoye,64.8989,45.7622,RU,3.0,41.56,40,100,18.12
20,Amberley,39.2048,-84.428,US,-4.0,70.36,34,1,11.81
21,Kamina,-8.7386,24.9906,CD,2.0,76.19,75,98,9.01
22,Kaitangata,-46.2817,169.8464,NZ,12.0,61.12,57,10,9.98
23,Sawākin,19.1059,37.3321,SD,2.0,91.85,47,1,11.74
24,Las Varas,21.1667,-105.1667,MX,-6.0,82.31,58,7,9.1
25,Arraial do Cabo,-22.9661,-42.0278,BR,-3.0,73.51,69,100,12.44
26,Dikson,73.5069,80.5464,RU,7.0,30.09,86,99,9.33
27,Severo-Kuril'sk,50.6789,156.125,RU,11.0,35.71,97,100,23.67
28,La Rioja,42.25,-2.5,ES,2.0,48.36,56,91,6.78
29,Vaini,-21.2,-175.2,TO,13.0,80.6,71,100,29.91
30,Bathsheba,13.2167,-59.5167,BB,-4.0,80.17,72,100,14.92
31,Honningsvåg,70.9821,25.9704,NO,2.0,33.46,50,100,20.11
32,Sawtell,-30.3833,153.1,AU,10.0,67.98,91,80,3.76
33,Abū Zabad,12.35,29.25,SD,2.0,102.31,12,55,8.72
34,Jamestown,42.097,-79.2353,US,-4.0,56.46,41,8,17.94
35,Puerto Princesa City,9.7392,118.7353,PH,8.0,87.91,67,33,11.45
36,Atuona,-9.8,-139.0333,PF,-9.5,79.72,71,3,9.28
37,Kano,12.0001,8.5167,NG,1.0,105.57,8,87,11.48
38,Qaanaaq,77.484,-69.3632,GL,-3.0,35.71,63,100,9.1
39,East London,-33.0153,27.9116,ZA,2.0,72.19,55,0,13
40,Albany,42.6001,-73.9662,US,-4.0,54.03,50,29,16.73
41,Narsaq,60.9167,-46.05,GL,-2.0,46.24,37,0,22.53
42,Cairns,-16.9167,145.7667,AU,10.0,79.92,68,52,12.12
43,Livingston,55.9029,-3.5226,GB,1.0,49.03,55,96,9.57
44,Viedma,-40.8135,-62.9967,AR,-3.0,74.43,31,96,14.81
45,Boyolangu,-8.1181,111.8935,ID,7.0,87.22,67,24,6.8
46,Guerrero Negro,27.9769,-114.0611,MX,-6.0,74.64,50,17,21.34
47,Hobart,-42.8794,147.3294,AU,10.0,71.47,56,40,6.13
48,Korla,41.7597,86.1469,CN,8.0,72.9,15,99,21.25
49,Salalah,17.0151,54.0924,OM,4.0,88.45,63,86,14.56
50,Castro,-24.7911,-50.0119,BR,-3.0,72.14,63,49,9.28
51,Avarua,-21.2078,-159.775,CK,-10.0,80.6,74,70,19.13
52,Bhopal,23.2667,77.4,IN,5.5,99.23,19,97,16.91
53,San Patricio,28.017,-97.5169,US,-5.0,74.43,97,96,17.34
54,Lukovetskiy,64.2956,41.9211,RU,3.0,41.63,28,25,12.39
55,Tiznit Province,29.5833,-9.5,MA,0.0,68.27,39,100,13.33
56,Shenavan,40.0549,43.9288,AM,4.0,72.3,37,10,8.32
57,Bluff,-46.6,168.3333,NZ,12.0,57.27,76,60,17.49
58,Lebu,-37.6167,-73.65,CL,-4.0,56.28,88,100,17.34
59,Bubaque,11.2833,-15.8333,GW,0.0,81.43,54,83,20.2
60,Matara,5.9485,80.5353,LK,5.5,87.12,65,90,7.67
61,Florø,61.5996,5.0328,NO,2.0,43.45,65,11,20.38
62,Campo Maior,-4.8278,-42.1686,BR,-3.0,88.2,56,43,9.01
63,Almaznyy,48.0448,40.045,RU,3.0,71.51,62,100,9.4
64,Pevek,69.7008,170.3133,RU,12.0,17.6,83,77,9.69
65,Itoman,26.1247,127.6694,JP,9.0,72.99,63,15,16.24
66,San Quintín,30.4833,-115.95,MX,-7.0,68.61,65,100,17.67
67,Malanje,-9.5402,16.341,AO,1.0,79.14,68,89,7.02
68,Hope,33.6671,-93.5916,US,-5.0,74.79,50,100,7.65
69,Iqaluit,63.7506,-68.5145,CA,-4.0,37.44,80,95,27.85
70,Nakhon Thai,17.1006,100.8374,TH,7.0,89.11,64,94,4.03
71,Caçu,-18.5567,-51.1308,BR,-3.0,86.72,42,100,11.63
72,Nouadhibou,20.931,-17.0347,MR,0.0,67.87,82,0,25.64
73,Port Macquarie,-31.4333,152.9167,AU,10.0,67.57,92,82,5.53
74,Tuatapere,-46.1333,167.6833,NZ,12.0,59.97,76,4,5.19
75,Cape Town,-33.9258,18.4232,ZA,2.0,74.41,35,94,8.48
76,Faanui,-16.4833,-151.75,PF,-10.0,81.01,67,59,8.3
77,Tasiilaq,65.6145,-37.6368,GL,-2.0,34.63,72,9,4.03
78,Richards Bay,-28.783,32.0377,ZA,2.0,71.69,67,3,6.51
79,Thompson,55.7435,-97.8558,CA,-5.0,31.89,88,100,11.72
80,Sur,22.5667,59.5289,OM,4.0,95.36,35,1,18.97
81,Rosarito,32.3333,-117.0333,MX,-7.0,68.16,66,100,11.68
82,Bilibino,68.0546,166.4372,RU,12.0,21.27,61,68,7.38
83,Qaqortoq,60.7167,-46.0333,GL,-2.0,45.54,45,1,16.53
84,Yashalta,46.3395,42.2762,RU,3.0,73.27,56,0,7.63
85,Hermanus,-34.4187,19.2345,ZA,2.0,74.97,40,16,10.2
86,Tuktoyaktuk,69.4541,-133.0374,CA,-6.0,19.83,90,92,7.47
87,Yamada,39.4667,141.95,JP,9.0,49.24,89,100,9.8
88,Busselton,-33.65,115.3333,AU,8.0,64.69,65,10,20.47
89,Alta Floresta,-9.8756,-56.0861,BR,-4.0,82.81,87,57,4.12
90,Port Elizabeth,-33.918,25.5701,ZA,2.0,72.41,43,0,13.78
91,Campbell River,50.0163,-125.2446,CA,-7.0,58.66,50,74,8.16
92,Hilo,19.7297,-155.09,US,-10.0,77.52,64,9,10.94
93,Saint-Philippe,-21.3585,55.7679,RE,4.0,80.13,76,1,8.97
94,Aleksandrov Gay,50.147,48.5704,RU,4.0,70.14,59,13,8.37
95,Benicarló,40.4165,0.4271,ES,2.0,63.18,44,89,10.94
96,Norman Wells,65.282,-126.8329,CA,-6.0,48.2,61,82,6.51
97,Carnarvon,-24.8667,113.6333,AU,8.0,75.78,49,100,20.29
98,Wagar,16.1525,36.2032,SD,2.0,97.68,26,100,15.97
99,Camiri,-20.05,-63.5167,BO,-4.0,84.06,39,0,7.49
100,Nhulunbuy,-12.2333,136.7667,AU,9.5,84.38,67,53,15.19
101,Port Alfred,-33.5906,26.891,ZA,2.0,72.37,52,0,14.58
102,Mar del Plata,-38.0023,-57.5575,AR,-3.0,69.33,61,100,13.65
103,Saint George,37.1041,-113.5841,US,-6.0,90,10,100,23.02
104,Bucerías,20.75,-105.3333,MX,-5.0,86.61,47,1,10.04
105,Sfântu Gheorghe,45.8667,25.7833,RO,3.0,71.98,57,97,13.29
106,Santa Rosa,14.3122,121.1114,PH,8.0,93.65,56,25,16.15
107,Muisne,0.6,-80.0333,EC,-5.0,78.06,87,98,13.6
108,Barrow,71.2906,-156.7887,US,-8.0,25.77,81,94,11.27
109,North Myrtle Beach,33.816,-78.68,US,-4.0,71.2,25,0,16.75
110,Calabozo,8.9242,-67.4293,VE,-4.0,91.47,48,66,5.46
111,Dosso,13.049,3.1937,NE,1.0,109.04,12,2,7.83
112,Mossamedes,-15.1961,12.1522,AO,1.0,84.15,62,1,14.79
113,Ilulissat,69.2167,-51.1,GL,-2.0,44.6,61,18,13.8
114,Ishigaki,24.3448,124.1572,JP,9.0,76.89,82,71,20.09
115,Serafimovich,49.5786,42.736,RU,3.0,71.82,42,1,7.49
116,Tornio,65.8481,24.1466,FI,3.0,36.27,72,100,7.27
117,Española,35.9911,-106.0806,US,-6.0,79.43,18,0,15.26
118,Hobyo,5.3505,48.5268,SO,3.0,88.88,57,24,14.23
119,Bairiki Village,1.3292,172.9752,KI,12.0,86,74,40,12.17
120,Puerto Ayora,-0.7393,-90.3518,EC,-6.0,77.59,70,60,10.09
121,Ust-Tsilma,65.441,52.1498,RU,3.0,36.68,59,85,18.54
122,Shymkent,42.3,69.6,KZ,6.0,78.17,50,0,7.18
123,Palu,-0.8917,119.8707,ID,8.0,87.21,68,73,4.07
124,Kargil,34.5667,76.1,IN,5.5,52.56,32,0,7.99
125,Hithadhoo,-0.6,73.0833,MV,5.0,84.63,70,100,7.94
126,Nabire,-3.3667,135.4833,ID,9.0,87.15,69,84,5.82
127,Bukama,-9.2,25.85,CD,2.0,74.8,88,96,3.98
128,Bützow,53.85,11.9833,DE,2.0,50.72,89,100,13.29
129,Medina,24.4686,39.6142,SA,3.0,99.72,8,0,18.32
130,Luohe,33.5717,114.0353,CN,8.0,71.56,28,68,16.73
131,Mount Isa,-20.7333,139.5,AU,10.0,86.59,36,2,17.43
132,Cabo San Lucas,22.8909,-109.9124,MX,-6.0,78.85,50,0,9.75
133,Manadhoo,5.7667,73.3833,MV,5.0,84.61,70,22,5.68
134,Saskylakh,71.9167,114.0833,RU,9.0,33.53,99,100,5.28
135,Gien,47.6933,2.6309,FR,2.0,54.25,61,72,6.82
136,Kādīpur,26.1667,82.3833,IN,5.5,109.38,18,47,13.11
137,Avera,33.194,-82.5271,US,-4.0,77.23,40,17,13.69
138,Waingapu,-9.6567,120.2641,ID,8.0,85.8,66,26,14.97
139,Berea,41.3662,-81.8543,US,-4.0,62.58,43,8,21.36
140,Manzanillo,20.3433,-77.1167,CU,-4.0,90,44,65,14.54
141,Te Anau,-45.4167,167.7167,NZ,12.0,56.55,65,8,1.36
142,Cantanhede,-3.6333,-44.3767,BR,-3.0,84.87,74,82,3.76
143,Boa Vista,2.8197,-60.6733,BR,-4.0,88.61,63,100,6.8
144,Mumford,5.2618,-0.759,GH,0.0,86.22,68,100,15.59
145,Kiunga,-6.1219,141.2906,PG,10.0,87.94,71,83,4.61
146,Shīeli,44.1667,66.75,KZ,5.0,79.05,22,0,22.57
147,Esperance,-33.8667,121.9,AU,8.0,68.68,60,0,12.86
148,Kahului,20.8947,-156.47,US,-10.0,77.83,63,26,14.99
149,Benghazi,32.1167,20.0667,LY,2.0,88.11,27,96,16.24
150,Pindi Gheb,33.2402,72.2661,PK,5.0,99.59,20,8,11.97
151,Ancud,-41.8697,-73.8203,CL,-4.0,56.82,85,73,21.81
152,Goulburn,-34.75,149.7167,AU,10.0,64.83,83,100,4.7
153,Tokur,53.1333,132.9,RU,9.0,37.69,77,83,7.29
154,Visnes,59.3556,5.2242,NO,2.0,44.26,64,18,14.23
155,Aban,56.67,96.06,RU,7.0,48.96,60,57,17.78
156,Pisco,-13.7,-76.2167,PE,-5.0,72.45,70,7,8.93
157,Torbay,47.6666,-52.7314,CA,-2.5,51.04,77,80,25.32
158,Lagoa,39.05,-27.9833,PT,0.0,61.09,83,100,25.37
159,Province of Trapani,37.8333,12.6667,IT,2.0,71.42,46,75,11.34
160,Saint-Augustin,51.226,-58.6502,CA,-4.0,39.22,96,100,22.53
161,Den Helder,52.9599,4.7593,NL,2.0,45.86,69,18,17.13
162,Kruisfontein,-34.0033,24.7314,ZA,2.0,75.81,29,0,10.04
163,Mahajanga,-15.7167,46.3167,MG,3.0,89.24,57,8,11.83
164,Buala,-8.145,159.5921,SB,11.0,84.07,70,99,2.91
165,Bonthe,7.5264,-12.505,SL,0.0,88.65,62,100,13.02
166,Donghai,22.9459,115.642,CN,8.0,88.36,44,100,12.82
167,Novy Urengoy,66.0833,76.6333,RU,5.0,33.35,98,100,20.36
168,Miles City,46.4083,-105.8406,US,-6.0,75.45,24,99,12.41
169,Pangnirtung,66.1451,-65.7125,CA,-4.0,40.39,80,100,7.83
170,Hasaki,35.7333,140.8333,JP,9.0,66.87,44,24,31.32
171,Jiwani,25.05,61.7417,PK,5.0,85.14,57,12,17.69
172,Provideniya,64.3833,-173.3,RU,12.0,27.48,78,100,13.24
173,Vila,42.0304,-8.1588,PT,1.0,52.84,39,10,5.46
174,Bima,-8.4667,118.7167,ID,8.0,88.05,60,25,4.34
175,Kavieng,-2.5744,150.7967,PG,10.0,84.4,68,31,7.11
176,Waddān,29.1614,16.139,LY,2.0,106.3,5,95,16.53
177,Mitú,1.1983,-70.1733,CO,-5.0,81.12,79,90,5.14
178,Sitka,57.0531,-135.33,US,-8.0,46.89,66,61,6.35
179,Ketchikan,55.3422,-131.6461,US,-8.0,49.82,85,94,4.76
180,Santa Cruz de la Sierra,-17.8,-63.1667,BO,-4.0,83.89,41,1,14.97
181,São Filipe,14.8961,-24.4956,CV,-1.0,73.62,71,1,14.09
182,Yerbogachën,61.2767,108.0108,RU,8.0,44.92,76,34,9.71
183,Vao,-22.6667,167.4833,NC,11.0,74.84,66,100,27.11
184,Cedral,23.8,-100.7333,MX,-5.0,83.93,23,4,21.99
185,Karratha,-20.7377,116.8463,AU,8.0,90.46,35,14,13.56
186,Redlands,34.0556,-117.1825,US,-7.0,83.17,15,84,9.66
187,Geraldton,-28.7667,114.6,AU,8.0,71.65,47,14,18.14
188,Kralendijk,12.15,-68.2667,BQ,-4.0,80.6,77,86,16.51
189,Codrington,-38.2667,141.9667,AU,10.0,70.56,68,99,13.67
190,Safi,32.2994,-9.2372,MA,0.0,66.72,55,95,22.53
191,Chodavaram,17.8333,82.95,IN,5.5,101.07,34,6,16.62
192,Lorengau,-2.0226,147.2712,PG,10.0,84.47,73,73,3.51
193,Skibbereen,51.55,-9.2667,IE,1.0,51.19,57,54,12.97
194,Rio Grande,-32.035,-52.0986,BR,-3.0,71.98,60,0,14.65
195,New Norfolk,-42.7826,147.0587,AU,10.0,72.14,59,100,3.31
196,Puerto del Rosario,28.5004,-13.8627,ES,1.0,68.54,54,46,18.81
197,Saint Paul Harbor,57.79,-152.4072,US,-8.0,46.4,67,94,13.78
198,Qeshm,26.9581,56.2719,IR,4.5,86.04,52,1,12.71
199,Souillac,-20.5167,57.5167,MU,4.0,80.67,76,45,10.67
200,Upernavik,72.7868,-56.1549,GL,-2.0,33.35,75,75,6.38
201,Arklow,52.7931,-6.1414,IE,1.0,48.9,68,75,7.27
202,Altay,47.8667,88.1167,CN,8.0,49.62,29,32,14.09
203,Ouagadougou,12.3642,-1.5383,BF,0.0,106.41,16,1,9.01
204,Yibin,28.7667,104.6238,CN,8.0,91.94,56,64,8.05
205,Touros,-5.1989,-35.4608,BR,-3.0,87.82,51,10,18.72
206,Vallenar,-28.5708,-70.7581,CL,-4.0,77.67,34,41,8.75
207,Gualaquiza,-3.4,-78.55,EC,-5.0,74.71,78,65,3.04
208,Airai,-8.9266,125.4092,TL,9.0,73.98,53,76,3.87
209,Cherskiy,68.75,161.3,RU,11.0,24.4,75,38,4.83
210,Lavrentiya,65.5833,-171.0,RU,12.0,23.77,88,100,9.24
211,Clyde River,70.4692,-68.5914,CA,-4.0,28.63,93,72,3.69
212,Buffalo,42.8865,-78.8784,US,-4.0,49.46,44,22,17.18
213,Husavik,66.0449,-17.3389,IS,0.0,35.19,76,95,13.78
214,Bereket,39.2446,55.5154,TM,5.0,79.93,23,100,14.14
215,Pangkalanbuun,-2.6833,111.6167,ID,7.0,90.07,69,71,4.65
216,Chokurdakh,70.6333,147.9167,RU,11.0,25.86,85,41,5.37
217,Samarai,-10.6167,150.6667,PG,10.0,81.14,78,31,10.94
218,Yuli,9.6989,10.2744,NG,1.0,104.94,29,75,9.78
219,George Town,5.4112,100.3354,MY,8.0,85.84,70,86,8.37
220,Manta,-0.95,-80.7333,EC,-5.0,82.4,73,84,14.32
221,Talnakh,69.4865,88.3972,RU,7.0,30.76,94,96,6.31
222,Leningradskiy,69.3833,178.4167,RU,12.0,18.3,90,100,21.61
223,Kangaba,11.9333,-8.4167,ML,0.0,104.67,25,16,7.34
224,Flinders,-34.5833,150.8552,AU,10.0,70.23,79,100,12.17
225,Nanortalik,60.1432,-45.2371,GL,-2.0,40.91,58,29,14.67
226,Mitsamiouli,-11.3847,43.2844,KM,3.0,83.53,73,14,7.99
227,Naze,28.3667,129.4833,JP,9.0,69.8,44,18,15.19
228,Katsuura,35.1333,140.3,JP,9.0,66.67,62,12,36.53
229,Falmouth,50.1544,-5.0711,GB,1.0,52.02,56,4,13.15
230,Dhārūr,18.8167,76.1167,IN,5.5,93.56,24,66,16.71
231,Mayumba,-3.432,10.6554,GA,1.0,83.39,77,96,9.46
232,Yulara,-25.2406,130.9889,AU,9.5,85.86,33,32,11.54
233,Broken Hill,-31.95,141.4333,AU,9.5,79.99,41,0,14.47
234,Aykhal,66.0,111.5,RU,9.0,34.02,100,100,7.31
235,Fiumicino,41.7675,12.2291,IT,2.0,62.6,70,90,18.88
236,Vanavara,60.34,102.2797,RU,7.0,43.27,68,74,9.86
237,Aripuanã,-9.1667,-60.6333,BR,-4.0,84.97,70,29,2.62
238,Maicao,11.3832,-72.2432,CO,-5.0,88.34,55,100,11.03
239,Atbasar,51.8,68.3333,KZ,6.0,66.2,27,91,16.02
240,San Bartolo Cuitareo,19.6167,-100.6,MX,-5.0,80.01,30,92,11.07
241,Olafsvik,64.8945,-23.7142,IS,0.0,37.96,67,96,30
242,Bilma,18.6853,12.9164,NE,1.0,106.25,3,0,13.96
243,Bengkulu,-3.8004,102.2655,ID,7.0,85.48,66,78,7.94
244,Strezhevoy,60.7333,77.5889,RU,7.0,47.97,51,98,15.57
245,Necochea,-38.5473,-58.7368,AR,-3.0,70.56,52,98,14.63
246,Abatskiy,56.2875,70.4555,RU,5.0,69.67,30,99,23.38
247,Alugan,12.2188,125.4808,PH,8.0,83.7,81,47,11.18
248,Itararé,-24.1125,-49.3317,BR,-3.0,74.91,53,72,8.81
249,Comodoro Rivadavia,-45.8667,-67.5,AR,-3.0,62.96,46,100,27.72
250,Kirakira,-10.4544,161.9205,SB,11.0,81.88,77,96,6.11
251,Nikolskoye,59.7035,30.7861,RU,3.0,51.94,38,77,7.61
252,Camaná,-16.6228,-72.7111,PE,-5.0,71.56,69,76,10.49
253,Charlottesville,38.0293,-78.4767,US,-4.0,69.94,20,8,12.59
254,Iskateley,67.6803,53.1512,RU,3.0,31.77,93,100,28.83
255,Wajir,1.7471,40.0573,KE,3.0,91.69,46,35,13.49
256,Pochutla,15.7432,-96.4661,MX,-5.0,90.68,46,92,11.36
257,Fortuna,40.5982,-124.1573,US,-7.0,56.25,79,72,11.81
258,Verkhnevilyuysk,63.4453,120.3167,RU,9.0,38.01,96,100,5.19
259,Port Hardy,50.6996,-127.4199,CA,-7.0,50.41,72,40,12.37
260,Mumbai,19.0144,72.8479,IN,5.5,89.37,56,43,18.14
261,Dukat,62.55,155.55,RU,11.0,28.67,85,99,3
262,Saint-Joseph,-21.3667,55.6167,RE,4.0,79.34,73,1,8.08
263,Conceição do Araguaia,-8.2578,-49.2647,BR,-3.0,84.47,75,71,5.08
264,Douentza,14.9951,-2.9517,ML,0.0,104.49,19,5,17.38
265,Denpasar,-8.65,115.2167,ID,8.0,83.39,74,70,8.97
266,Udachny,66.4167,112.4,RU,9.0,34.3,100,100,8.55
267,Sārangarh,21.6,83.0833,IN,5.5,105.64,15,92,15.52
268,Boshnyakovo,49.6333,142.1667,RU,11.0,38.17,75,100,17.05
269,Östersund,63.1792,14.6357,SE,2.0,41.65,45,54,5.19
270,Kangaatsiaq,68.3065,-53.4641,GL,-2.0,33.87,77,89,13.65
271,Lyaskelya,61.7667,31.0167,RU,3.0,43.21,32,31,7.43
272,Soubre,5.7856,-6.6083,CI,0.0,98.08,40,15,7.29
273,Kaeo,-35.1,173.7833,NZ,12.0,66.99,66,0,6.06
274,Kawalu,-7.3817,108.2082,ID,7.0,90.91,58,46,4.85
275,Province of Mantua,45.1667,10.7833,IT,2.0,65.01,65,45,14.7
276,Nelson Bay,-32.7167,152.15,AU,10.0,71.02,71,83,15.14
277,Bethel,41.3712,-73.414,US,-4.0,60.17,45,6,15.99
278,Itanagar,27.1,93.6167,IN,5.5,95.58,29,6,6.17
279,Ushibukamachi,32.1906,130.0228,JP,9.0,60.39,59,62,23.62
280,Elliot Lake,46.3834,-82.6331,CA,-4.0,46.4,60,99,12.93
281,Lesosibirsk,58.2358,92.4828,RU,7.0,42.19,90,98,11.61
282,Hong Kong,22.2855,114.1577,HK,8.0,80.29,74,87,11.01
283,Sarangani,5.4033,125.4636,PH,8.0,83.89,73,51,20.58
284,Capitão Poço,-1.7464,-47.0594,BR,-3.0,81.55,84,100,6.29
285,Gull Lake,50.1001,-108.4847,CA,-6.0,64.4,43,97,23.31
286,Khani,41.9563,42.9566,GE,4.0,71.06,40,4,5.88
287,Dicabisagan,17.0818,122.4157,PH,8.0,86.68,64,5,7.83
288,Santiago de Chuco,-8.15,-78.1833,PE,-5.0,59.7,61,77,3.89
289,Tomatlán,19.9333,-105.25,MX,-5.0,92.43,28,0,13.02
290,Oussouye,12.485,-16.5469,SN,0.0,96.76,23,19,18.48
291,Makkah al Mukarramah,21.4267,39.8261,SA,3.0,98.91,27,7,18.77
292,Antalaha,-14.9003,50.2788,MG,3.0,83.03,68,5,7.38
293,Sarāhan,31.5167,77.8,IN,5.5,69.71,37,79,7.43
294,Hudiksvall,61.729,17.1036,SE,2.0,47.3,39,24,10.09
295,Coyhaique,-45.5752,-72.0662,CL,-4.0,52.83,79,42,7.52
296,Stolin,51.8912,26.846,BY,3.0,61.34,77,100,16.98
297,Cap-aux-Meules,47.3821,-61.8597,CA,-3.0,41,95,100,36.35
298,Muntilan,-7.5811,110.2928,ID,7.0,87.82,58,25,5.97
299,Port Lincoln,-34.7333,135.8667,AU,9.5,63.03,68,100,13.76
300,Fuerte Olimpo,-21.0415,-57.8738,PY,-4.0,94.59,25,0,7.4
301,Vestmannaeyjar,63.4427,-20.2734,IS,0.0,40.46,70,100,16.17
302,Saldanha,-33.0117,17.9442,ZA,2.0,74.14,31,0,14.9
303,Nālūt,30.3333,10.85,LY,2.0,101.91,1,95,18.41
304,Port Augusta,-32.5,137.7667,AU,9.5,71.94,68,2,14.74
305,Moshenskoye,58.5102,34.5911,RU,3.0,51.62,44,49,7.25
306,Oranjemund,-28.55,16.4333,NA,2.0,86.77,23,0,23.02
307,Vanimo,-2.6741,141.3028,PG,10.0,84.24,74,46,4.79
308,Lompoc,34.6391,-120.4579,US,-7.0,66.58,50,100,18.3
309,Price,39.5994,-110.8107,US,-6.0,78.8,21,100,27.02
310,Lábrea,-7.2586,-64.7981,BR,-4.0,86.36,75,30,2.77
311,Longyearbyen,78.2186,15.6401,SJ,2.0,23.92,76,16,5.14
312,Soyo,-6.1349,12.3689,AO,1.0,84.78,65,94,8.99
313,Pahrump,36.2083,-115.9839,US,-7.0,91.99,11,100,24.05
314,Grindavik,63.8424,-22.4338,IS,0.0,42.55,67,99,20.29
315,Stornoway,58.2093,-6.3865,GB,1.0,44.1,67,100,6.38
316,Evensk,61.95,159.2333,RU,11.0,32.54,71,4,9.93
317,Ambulu,-8.345,113.6058,ID,7.0,86.67,66,97,6.31
318,Nizwá,22.9333,57.5333,OM,4.0,94.82,19,5,12.73
319,Neryungri,56.6709,124.6491,RU,9.0,36.93,94,87,6.73
320,Prince Rupert,54.3161,-130.3201,CA,-7.0,48.51,82,98,7.54
321,Edson,53.5835,-116.4356,CA,-6.0,52.99,25,65,17.16
322,Rawson,-43.3002,-65.1023,AR,-3.0,66.67,46,100,20.65
323,Khipro,25.8285,69.3772,PK,5.0,104.16,12,99,22.21
324,Cayenne,4.9333,-52.3333,GF,-3.0,82.2,80,63,8.81
325,Umm Kaddadah,13.6017,26.6876,SD,2.0,103.21,9,20,17.36
326,Angoche,-16.2325,39.9086,MZ,2.0,80.73,77,40,13.98
327,Elizabethton,36.3487,-82.2107,US,-4.0,68.7,28,6,7.83
328,Jalingo,8.8833,11.3667,NG,1.0,104.94,35,94,7.94
329,Vila Velha,-20.3297,-40.2925,BR,-3.0,76.21,69,98,13.49
330,High Level,58.5169,-117.136,CA,-6.0,46.4,71,100,8.63
331,Chalmette,29.9427,-89.9634,US,-5.0,80.64,50,97,13.02
332,Mocuba,-16.8392,36.9856,MZ,2.0,74.52,93,86,9.33
333,Oudtshoorn,-33.5907,22.2014,ZA,2.0,80.73,17,0,4.83
334,Port Blair,11.6667,92.75,IN,5.5,86.95,66,7,11.01
335,Kushmurun,52.4503,64.6311,KZ,6.0,70.16,27,100,20.8
336,Banda Aceh,5.5577,95.3222,ID,7.0,88.23,61,97,8.55
337,Kyaikkami,16.08,97.5675,MM,6.5,86.86,69,21,9.75
338,Nemuro,43.3236,145.575,JP,9.0,41,84,85,17.96
339,Smithfield,41.922,-71.5495,US,-4.0,61.45,43,8,15.48
340,Shingū,33.7333,135.9833,JP,9.0,64.29,51,48,17.34
341,Alice Springs,-23.7,133.8833,AU,9.5,84.67,30,19,12.12
342,Manokwari,-0.8667,134.0833,ID,9.0,83.19,70,96,8.43
343,Itaituba,-4.2761,-55.9836,BR,-3.0,89.87,53,80,5.41
344,Strășeni,47.1414,28.6103,MD,3.0,78.24,60,70,12.3
345,Puerto Ayacucho,5.6639,-67.6236,VE,-4.0,84.96,77,91,4.63
346,Fernley,39.608,-119.2518,US,-7.0,76.89,9,4,24.54
347,Padang,-0.9492,100.3543,ID,7.0,87.67,64,58,5.79
348,Ossora,59.2353,163.0719,RU,12.0,29.16,63,1,5.86
349,Puerto Cabello,10.4731,-68.0125,VE,-4.0,78.49,82,35,8.9
350,Omsukchan,62.5333,155.8,RU,11.0,29.8,83,100,3.22
351,Gondanglegi,-7.7479,112.0132,ID,7.0,88.5,67,36,4.94
352,Woodstock,43.1334,-80.7497,CA,-4.0,53.19,40,14,20.04
353,Antigonish,45.6169,-61.9986,CA,-3.0,45.75,95,100,21.81
354,Dakar,14.6937,-17.4441,SN,0.0,71.06,77,31,22.82
355,Myaundzha,63.0494,147.1858,RU,11.0,33.46,94,100,3.36
356,Pizarro,4.9533,-77.366,CO,-5.0,80.74,81,83,7.45
357,Lafia,8.4833,8.5167,NG,1.0,100.56,44,100,11.97
358,Vuktyl,63.8567,57.3094,RU,3.0,38.68,42,100,18.59
359,Plettenberg Bay,-34.0527,23.3716,ZA,2.0,71.98,38,3,7.29
360,Raton,36.9034,-104.4391,US,-6.0,78.93,17,3,12.95
361,Sioux Lookout,50.1001,-91.917,CA,-5.0,68,42,19,10.98
362,San Policarpo,12.1791,125.5072,PH,8.0,83.46,81,53,12.06
363,Teyateyaneng,-29.1472,27.7489,LS,2.0,61.81,45,0,3.24
364,Rodolfo Sánchez Taboada,31.7167,-116.5667,MX,-7.0,73.13,50,100,10.94
365,Norrtälje,59.758,18.705,SE,2.0,49.91,52,48,10.98
366,Konstantinovka,49.6167,127.9833,RU,9.0,64.42,40,42,7.72
367,Lumphat,13.4878,106.9816,KH,7.0,100.31,48,31,5.3
368,Wyndham,37.6985,-77.6125,US,-4.0,68.09,20,5,13.51
369,Sol'tsy,58.1239,30.3238,RU,3.0,53.01,43,9,5.88
370,Chegutu,-18.1302,30.1407,ZW,2.0,71.71,63,92,12.62
371,Alofi,-19.0595,-169.9187,NU,-11.0,82.4,81,22,21.74
372,Portland,45.5234,-122.6762,US,-7.0,61,48,79,8.41
373,Fairview,40.8126,-73.999,US,-4.0,63.03,38,3,18.86
374,Hof,50.3167,11.9167,DE,2.0,48.6,73,100,13.94
375,Colac,-38.3333,143.5833,AU,10.0,68.29,73,90,6.8
376,Ostrovnoy,68.0531,39.5131,RU,3.0,32.59,89,100,25.19
377,Gijang,35.2442,129.2139,KR,9.0,61.48,57,80,17.78
378,Vysokogornyy,50.1167,139.15,RU,10.0,37.58,73,100,9.4
379,Yeniseysk,58.4497,92.1703,RU,7.0,42.15,87,100,11.18
380,Oodweyne,9.4092,45.064,SO,3.0,83.3,50,11,11.97
381,Petra,30.3222,35.4793,JO,3.0,80.31,15,5,19.69
382,Jieshi,22.8134,115.8257,CN,8.0,80.65,68,99,13.71
383,Hofn,64.2539,-15.2082,IS,0.0,39.49,52,95,23.82
384,Port Hawkesbury,45.6169,-61.3485,CA,-3.0,42.96,96,100,23.17
385,Yangi Marg`ilon,40.4272,71.7189,UZ,5.0,85.69,33,5,11.77
386,Kudahuvadhoo,2.6708,72.8944,MV,5.0,84.25,67,47,4.5
387,Hinche,19.15,-72.0167,HT,-4.0,91.04,44,59,10.92
388,Staunton,38.1496,-79.0717,US,-4.0,66.67,29,7,17.87
389,Verkhnyaya Inta,65.9811,60.3094,RU,3.0,38.82,50,29,24.58
390,Normandin,48.8333,-72.5321,CA,-4.0,49.24,25,77,20.27
391,Mahon,39.8885,4.2658,ES,2.0,61.3,74,86,17.52
392,Batticaloa,7.7102,81.6924,LK,5.5,86.47,66,88,11.34
393,Poum,-20.2333,164.0167,NC,11.0,77.92,72,92,19.51
394,Kununurra,-15.7667,128.7333,AU,8.0,93.74,44,0,15.82
395,Chapais,49.7834,-74.8492,CA,-4.0,46.09,36,95,16.28
396,Shubarshi,48.5872,57.1869,KZ,5.0,71.6,18,100,14.38
397,Mandalgovi,45.7625,106.2708,MN,8.0,63.93,26,39,31.43
398,Deder,9.3167,41.45,ET,3.0,65.35,68,78,3.49
399,Balangiga,11.1097,125.3875,PH,8.0,85.44,79,67,10.87
400,Boyuibe,-20.4167,-63.2833,BO,-4.0,81.61,41,1,8.88
401,Sokodé,8.9833,1.1333,TG,0.0,99.75,37,51,8.39
402,Zabul Province,32.25,67.25,AF,4.5,76.8,34,90,18.48
403,Bria,6.5423,21.9863,CF,1.0,98.76,37,98,10.16
404,Yārāda,17.65,83.2667,IN,5.5,88.29,63,3,16.31
405,Batouri,4.4333,14.3667,CM,1.0,95.54,45,100,4
406,Antofagasta,-23.65,-70.4,CL,-4.0,69.67,63,22,9.42
407,Palmer,42.1584,-72.3287,US,-4.0,59.23,48,6,13.73
408,Egvekinot,66.3167,-179.1667,RU,12.0,19.65,84,91,9.64
409,Kandé,9.9578,1.0447,TG,0.0,99.91,36,28,10.76
410,São Miguel do Araguaia,-13.275,-50.1628,BR,-3.0,85.46,53,100,10.69
411,Donji Milanovac,44.4627,22.1523,RS,2.0,80.19,42,34,14.12
412,Fairbanks,64.8378,-147.7164,US,-8.0,42.69,42,40,4.9
413,Valley City,46.9233,-98.0032,US,-5.0,81.46,24,6,19.86
414,Canyon,34.9803,-101.9188,US,-5.0,78.19,31,64,17.74
415,Siderno,38.2779,16.302,IT,2.0,73.85,59,77,15.01
416,Laguna,38.421,-121.4238,US,-7.0,81.36,28,2,15.61
417,Salekhard,66.53,66.6019,RU,5.0,33.35,100,100,17.78
418,Nakamura,32.9833,132.9333,JP,9.0,63.81,45,30,13.29
419,Takoradze,4.8845,-1.7554,GH,0.0,88.27,62,83,13.22
420,Xining,36.6167,101.7667,CN,8.0,72.93,22,36,17.94
421,Corpus Christi,27.8006,-97.3964,US,-5.0,73.44,97,98,15.57
422,Aného,6.2333,1.6,TG,0.0,89.1,62,99,16.28
423,Rancho Palos Verdes,33.7445,-118.387,US,-7.0,63.72,79,100,11.16
424,Onega,63.9061,38.1404,RU,3.0,36.75,73,97,12.1
425,Tevaitoa,-16.7833,-151.5,PF,-10.0,81.09,71,93,9.73
426,Gornopravdinsk,60.05,69.9,RU,5.0,49.41,89,100,14.14
427,Mercedes,-34.6515,-59.4307,AR,-3.0,74.79,56,0,11.92
428,Vikhorevka,56.1201,101.1636,RU,8.0,51.48,49,56,11.5
429,Kathu,7.9178,98.3332,TH,7.0,86.61,68,100,11.14
430,Verkhnyaya Maksakovka,61.635,50.9674,RU,3.0,44.31,32,83,16.13
431,Cidreira,-30.1811,-50.2056,BR,-3.0,71.89,56,0,17.96
432,Kez,57.8979,53.7152,RU,4.0,49.69,41,45,10.78
433,Calvinia,-31.4707,19.776,ZA,2.0,76.35,25,0,20.24
434,Lodeynoye Pole,60.726,33.5531,RU,3.0,48.02,36,43,5.39
435,Burnie,-41.0667,145.9167,AU,10.0,62.65,68,100,8.16
436,Ixtapa,20.7,-105.2,MX,-5.0,91.22,36,3,9.73
437,Kishtwār,33.3167,75.7667,IN,5.5,77.97,33,6,8.59
438,Mehamn,71.0357,27.8492,NO,2.0,32.52,57,94,17.25
439,Timbiquí,2.7717,-77.6654,CO,-5.0,84.11,66,63,7.85
440,Tevriz,57.509,72.4042,RU,6.0,68.29,43,100,15.52
441,Labuhan,-6.8844,112.2051,ID,7.0,87.98,69,81,11.27
442,Kyra,49.5776,111.9753,RU,9.0,63.99,26,100,17
443,Sal Rei,16.1833,-22.9167,CV,-1.0,72,71,14,19.13
444,Samaná,19.2056,-69.3369,DO,-4.0,83.71,61,40,11.63
445,Ilo,-17.6394,-71.3375,PE,-5.0,70.88,69,94,10.6
446,Srednekolymsk,67.45,153.6833,RU,11.0,31.91,79,10,8.93
447,Malchevskaya,49.0552,40.3625,RU,3.0,71.31,49,27,9.22
448,Ponta Delgada,37.7333,-25.6667,PT,0.0,62.49,75,100,14.03
449,Imeni Babushkina,59.7573,43.1285,RU,3.0,45.63,51,98,7.99
450,Namatanai,-3.6667,152.4333,PG,10.0,85.59,65,38,3.74
451,Kamenka,51.3223,42.7678,RU,3.0,66.49,55,100,9.98
452,Augustów,53.8432,22.9798,PL,2.0,49.23,73,100,20.04
453,Zeya,53.75,127.2667,RU,9.0,57.06,41,64,7.07
454,Mount Gambier,-37.8333,140.7667,AU,9.5,66.25,73,53,13.42
455,Dhidhdhoo,6.8833,73.1,MV,5.0,84.9,71,9,5.32
456,Genhe,50.7833,121.5167,CN,8.0,55.85,40,100,9.78
457,Teahupoo,-17.8333,-149.2667,PF,-10.0,87.8,66,64,14.43
458,Baruun-Urt,46.6806,113.2792,MN,8.0,75.15,16,78,23.11
459,Yar-Sale,66.8333,70.8333,RU,5.0,34.39,99,100,20.85
460,Ponta do Sol,32.6667,-17.1,PT,1.0,64.4,65,100,5.91
461,Griffith,41.5284,-87.4237,US,-5.0,81.72,39,37,19.06
462,Tautira,-17.7333,-149.15,PF,-10.0,87.8,65,55,14.23
463,Erzin,36.9559,36.2,TR,3.0,82.36,39,75,7.02
464,Erenhot,43.6475,111.9767,CN,8.0,82.02,18,85,29.37
465,San Juan de Flores,14.2667,-87.0333,HN,-6.0,94.5,36,8,4.9
466,Wu’an,31.6836,112.0044,CN,8.0,70.09,58,87,14.61
467,Simoneşti,46.3333,25.1,RO,3.0,71.01,67,74,16.89
468,Bowen,-20.0167,148.2333,AU,10.0,78.46,70,42,16.8
469,Sinnamary,5.3833,-52.95,GF,-3.0,82.47,78,99,9.71
470,Taltal,-25.4,-70.4833,CL,-4.0,67.77,67,3,7.74
471,Jiuquan,39.7432,98.5174,CN,8.0,73.06,19,24,19.57
472,Broome,42.2506,-75.833,US,-4.0,51.17,52,63,17.54
473,Lakatoro,-16.0999,167.4164,VU,11.0,80.1,76,94,11.97
474,Arrondissement d'Arcachon,44.5875,-1.0519,FR,2.0,59.61,43,56,10.74
475,Havre-St-Pierre,50.2334,-63.5986,CA,-4.0,45.64,62,100,17.02
476,La Ronge,55.1001,-105.2842,CA,-6.0,52.7,69,82,8.59
477,Jumla,29.2747,82.1838,NP,5.75,69.89,30,17,7.31
478,Zyryanka,65.75,150.85,RU,11.0,37.6,83,86,7.47
479,Jacareacanga,-6.2222,-57.7528,BR,-3.0,89.42,69,57,3.13
480,Hibbing,47.4272,-92.9377,US,-5.0,76.93,33,2,13.47
481,Baghdad,33.3406,44.4009,IQ,3.0,93.49,18,0,11.97
482,Araouane,18.9048,-3.5265,ML,0.0,101.17,20,82,23.11
483,Rock Sound,24.9,-76.2,BS,-4.0,78.35,71,99,12.3
484,Mbumi,-7.9058,39.2105,TZ,3.0,85.77,70,71,7.74
485,Merauke,-8.4667,140.3333,ID,9.0,83.91,69,79,14.27
486,Bayan,46.0833,127.4,CN,8.0,67.33,37,20,11.65
487,Kumul,42.8,93.45,CN,8.0,70.84,15,98,31.76
488,Lodwar,3.1191,35.5973,KE,3.0,97.52,33,20,19.95
489,Mareeba,-17.0,145.4333,AU,10.0,78.24,70,26,6.49
490,Ternate,0.8,127.4,ID,9.0,84.47,73,66,6.08
491,Vardø,70.3705,31.1107,NO,2.0,33.49,55,90,15.55
492,Porto Franco,-6.3383,-47.3992,BR,-3.0,86.74,58,98,8.03
493,Guilin,25.2819,110.2864,CN,8.0,85.89,68,80,8.21
494,Maxixe,-23.8597,35.3472,MZ,2.0,76.73,54,23,17
495,Maningrida,-12.0667,134.2667,AU,9.5,88,61,5,12.44
496,Inzer,54.2167,57.5556,RU,5.0,54.45,89,100,10.49
497,Hervey Bay,-25.2986,152.8535,AU,10.0,74.39,82,78,16.69
498,Baykal'sk,51.5058,104.1469,RU,8.0,39.52,98,100,11.48
499,Córdoba,-31.4135,-64.1811,AR,-3.0,77.85,32,0,14.81
500,Arlit,18.7369,7.3853,NE,1.0,108.7,2,0,14.63
501,Los Llanos de Aridane,28.6585,-17.9182,ES,1.0,62.65,61,70,11.79
502,Ilog,10.0266,122.7684,PH,8.0,88.02,64,79,10.6
503,Dongying,37.4564,118.4856,CN,8.0,69.35,20,29,10.22
504,Yenangyaung,20.4667,94.8833,MM,6.5,101.86,38,0,14.54
505,Inuvik,68.3499,-133.7218,CA,-6.0,28.56,84,100,7.87
506,Nokaneng,-19.6667,22.2667,BW,2.0,84.47,34,38,12.71
507,Wasilla,61.5814,-149.4394,US,-8.0,51.28,33,20,5.14
508,Half Moon Bay,37.4636,-122.4286,US,-7.0,56.98,83,77,19.28
509,Najrān,17.4924,44.1277,SA,3.0,85.39,19,100,18.57
510,Carman,49.4992,-98.0016,CA,-5.0,71.2,38,53,16.08
511,Balkhash,46.844,74.9804,KZ,6.0,61.03,26,100,23.67
512,Kattivākkam,13.2167,80.3167,IN,5.5,89.69,58,8,15.61
513,Lexington Park,38.2668,-76.4538,US,-4.0,65.25,30,3,22.01
514,La Plata,-34.9215,-57.9545,AR,-3.0,71.13,56,0,10.47
515,Diamantino,-14.4086,-56.4461,BR,-4.0,89.26,51,7,6.38
516,Isangel,-19.55,169.2667,VU,11.0,79.5,78,90,21.45
517,Alekseyevka,50.6309,38.6903,RU,3.0,71.82,48,63,10.76
518,Grezzana,45.5203,11.0177,IT,2.0,62.49,64,90,9.08
519,Imperial,33.0334,-115.4175,US,-7.0,99.45,5,100,25.81
520,Pechora,65.1472,57.2244,RU,3.0,38.41,32,96,20.15
521,Payo,-3.7508,103.6372,ID,7.0,87.85,64,86,4.36
522,Vanderhoof,54.0166,-124.0198,CA,-7.0,56.48,37,60,12.95
523,Arrondissement de Rodez,44.5,2.5833,FR,2.0,58.19,39,63,8.05
524,Alyangula,-13.8483,136.4192,AU,9.5,84.69,70,3,15.55
525,Lębork,54.5392,17.7501,PL,2.0,48.25,53,100,13.91
526,Casa Grande,32.8795,-111.7573,US,-7.0,97.47,10,92,20.83
527,Belmonte,-15.8631,-38.8828,BR,-3.0,80.98,59,97,15.82
528,Nanchong,30.7951,106.0847,CN,8.0,81.84,59,100,17.25
529,Bonavista,48.6499,-53.1147,CA,-2.5,46.45,91,99,27.72
530,Gravdal,68.1214,13.5031,NO,2.0,37.27,63,56,18.25
531,Honiara,-9.4333,159.95,SB,11.0,84.88,67,71,4.32
532,Henties Bay,-22.116,14.2845,NA,2.0,73.69,55,31,12.26
533,Krasnosel'kup,65.7,82.4667,RU,5.0,35.31,95,57,16.78
534,Brownsville,25.9018,-97.4975,US,-5.0,76.05,88,100,8.48
535,Lata,40.1629,-8.3327,PT,1.0,65.23,38,36,11.79
536,Ruska Poliana,49.417,31.9201,UA,3.0,68.72,60,100,16.78
537,Antsohihy,-14.8796,47.9875,MG,3.0,91.13,58,0,6.89
538,Machilipatnam,16.1667,81.1333,IN,5.5,91.44,53,1,15.19
539,Requena,39.4883,-1.1004,ES,2.0,62.31,42,58,13.89
540,Macenta,8.5435,-9.471,GN,0.0,96.06,40,3,2.8
541,Dalbandin,28.8947,64.4101,PK,5.0,88.07,26,89,22.66
542,Hilton Head,32.2163,-80.7526,US,-4.0,70.9,56,68,18.1
543,Ust'-Kut,56.7938,105.7672,RU,8.0,50.05,67,82,9.6
544,Prome,18.8167,95.2167,MM,6.5,103.17,34,0,7.94
545,Mnogovershinnyy,53.9353,139.9242,RU,10.0,30.69,83,100,9.08
546,Gweta,-20.1833,25.2333,BW,2.0,80.91,39,1,19.33
547,Jardim,-21.4803,-56.1381,BR,-4.0,91.22,27,5,6.4
548,Vila do Maio,15.1333,-23.2167,CV,-1.0,72.75,76,10,18.48
549,Ostróda,53.6967,19.9649,PL,2.0,49.6,64,100,18.95
550,Porto-Novo,6.4965,2.6036,BJ,1.0,90.21,60,93,11.03
551,Wau,7.7029,27.9953,SS,2.0,95.97,41,96,8.21
552,Palizada,18.25,-92.0833,MX,-5.0,101.89,32,13,9.8
553,Garachiné,8.0647,-78.3628,PA,-5.0,82.33,73,63,7.47
554,Āzādshahr,34.7909,48.5707,IR,4.5,69.91,24,100,18.12
555,Springdale,36.1867,-94.1288,US,-5.0,72.41,45,98,13.06
556,Fredonia,42.4401,-79.3317,US,-4.0,52.92,53,9,21.94
557,Homer,59.6425,-151.5483,US,-8.0,47.91,49,41,5.26
558,Marsá Maţrūḩ,31.3525,27.2453,EG,2.0,86.49,29,1,9.04
559,Malartic,48.1335,-78.1328,CA,-4.0,42.3,52,97,13.4
560,Cameron Park,38.6688,-120.9872,US,-7.0,78.06,31,1,8.46
561,Caravelas,-17.7125,-39.2481,BR,-3.0,79.25,79,100,13.42
562,General Roca,-39.0333,-67.5833,AR,-3.0,65.61,52,100,19.55
563,Redding,40.5865,-122.3917,US,-7.0,81.77,28,7,6.53
564,Kholm,59.2667,32.85,RU,3.0,50.34,43,81,5.59
565,Penzance,50.1186,-5.5371,GB,1.0,50.25,60,3,12.95
566,Baracoa,20.3467,-74.4958,CU,-4.0,84.24,60,24,8.75
