,City Name,Latitude,Longitude,Country,UTC +/- (hours),Max Temperature,Humidity,Cloudiness,Wind Speed
0,Codrington,-38.2667,141.9667,AU,10.0,69.89,53,81,13.67
1,Mataura,-46.1927,168.8643,NZ,12.0,59.16,66,46,5.03
2,Rikitea,-23.1203,-134.9692,PF,-9.0,78.93,84,95,24.34
3,Saint Paul Harbor,57.79,-152.4072,US,-8.0,44.6,68,100,14.03
4,Ushuaia,-54.8,-68.3,AR,-3.0,42.06,84,92,3.38
5,Qaanaaq,77.484,-69.3632,GL,-3.0,35.71,63,100,9.1
6,Pangnirtung,66.1451,-65.7125,CA,-4.0,41.27,80,100,7.83
7,Bredasdorp,-34.5322,20.0403,ZA,2.0,77.58,34,3,9.04
8,Lüderitz,-26.6481,15.1594,NA,2.0,81.21,36,0,20.78
9,Bakchar,57.0186,82.0711,RU,7.0,54.59,54,15,12.44
10,Tiksi,71.6872,128.8694,RU,9.0,30.52,91,100,5.75
11,Aklavik,68.2191,-135.0107,CA,-6.0,30.43,81,100,5.12
12,Osoyoos,49.0331,-119.4524,CA,-7.0,68.29,32,37,12.91
13,Srednekolymsk,67.45,153.6833,RU,11.0,31.62,81,11,8.79
14,Aripuanã,-9.1667,-60.6333,BR,-4.0,85.35,70,29,2.62
15,Yellowknife,62.456,-114.3525,CA,-6.0,31.37,75,100,14.54
16,Ribeira Grande,38.5167,-28.7,PT,0.0,62.69,84,96,15.03
17,Port Alfred,-33.5906,26.891,ZA,2.0,72.07,50,0,13.65
18,Butaritari,3.0707,172.7902,KI,12.0,83.79,74,99,13.98
19,Porbandar,21.6422,69.6093,IN,5.5,92.08,50,92,18.88
20,San Patricio,28.017,-97.5169,US,-5.0,76.12,97,100,17.34
21,Busselton,-33.65,115.3333,AU,8.0,65.26,69,44,24.07
22,Hermanus,-34.4187,19.2345,ZA,2.0,74.7,40,4,10.22
23,Nantucket,41.2835,-70.0995,US,-4.0,50.7,70,38,31.23
24,Ancud,-41.8697,-73.8203,CL,-4.0,56.82,85,73,21.81
25,Bluff,-46.6,168.3333,NZ,12.0,59,77,79,17.58
26,Kavieng,-2.5744,150.7967,PG,10.0,84.36,70,24,5.57
27,Dikson,73.5069,80.5464,RU,7.0,30.96,88,99,8.86
28,Puerto Ayora,-0.7393,-90.3518,EC,-6.0,77.52,70,60,10.16
29,At-Bashi,41.1702,75.8106,KG,6.0,67.3,49,50,7.45
30,Barrow,71.2906,-156.7887,US,-8.0,26.49,83,100,11.68
31,Hithadhoo,-0.6,73.0833,MV,5.0,84.56,69,100,6.62
32,Ostrovnoy,68.0531,39.5131,RU,3.0,32.56,94,100,25.08
33,São Filipe,14.8961,-24.4956,CV,-1.0,72.5,69,9,14.05
34,New Norfolk,-42.7826,147.0587,AU,10.0,68.7,57,100,3.29
35,Ulaangom,49.9811,92.0667,MN,7.0,46.42,31,100,29.39
36,Segezha,63.7415,34.3222,RU,3.0,39.49,45,60,14.18
37,Hilo,19.7297,-155.09,US,-10.0,77.76,66,15,10.29
38,Ihosy,-22.4,46.1167,MG,3.0,77.77,56,100,7.16
39,Esperance,-33.8667,121.9,AU,8.0,68,52,5,12.46
40,Albany,42.6001,-73.9662,US,-4.0,53.53,50,29,16.73
41,Necochea,-38.5473,-58.7368,AR,-3.0,70.7,52,98,14.63
42,Kapaa,22.0752,-159.319,US,-10.0,77.2,72,21,15.79
43,Upernavik,72.7868,-56.1549,GL,-2.0,34.56,75,23,9.33
44,Tilichiki,60.4667,166.1,RU,12.0,25.14,72,7,10.09
45,Chui,-33.6971,-53.4616,UY,-3.0,73.87,60,0,7.52
46,Egvekinot,66.3167,-179.1667,RU,12.0,19.85,84,95,9.53
47,Severo-Kuril'sk,50.6789,156.125,RU,11.0,35.71,97,100,25.41
48,Hobart,-42.8794,147.3294,AU,10.0,68.81,47,20,6.13
49,Los Llanos de Aridane,28.6585,-17.9182,ES,1.0,62.71,59,42,11.61
50,Hat Yai,7.0084,100.4767,TH,7.0,90.21,67,47,11.27
51,Makat,47.6469,53.3463,KZ,5.0,80.69,16,100,20.83
52,Cape Town,-33.9258,18.4232,ZA,2.0,74.23,34,36,8.39
53,Norman Wells,65.282,-126.8329,CA,-6.0,46.4,67,96,6.73
54,Leh,34.1667,77.5833,IN,5.5,52.34,39,15,4.56
55,Atuona,-9.8,-139.0333,PF,-9.5,79.7,71,3,9.55
56,Vaini,-21.2,-175.2,TO,13.0,78.8,70,100,28.7
57,Te Anau,-45.4167,167.7167,NZ,12.0,57.92,65,5,1.32
58,Guerrero Negro,27.9769,-114.0611,MX,-6.0,75.61,50,15,20.8
59,Fort Smith,35.3859,-94.3986,US,-5.0,73.22,63,100,6.64
60,Bad Doberan,54.1071,11.9005,DE,2.0,48.09,88,100,7.81
61,Jamestown,42.097,-79.2353,US,-4.0,57.2,41,8,17.94
62,Mitsamiouli,-11.3847,43.2844,KM,3.0,83.25,74,31,7.87
63,San Jose,37.3394,-121.895,US,-7.0,72.27,45,0,10.56
64,Thompson,55.7435,-97.8558,CA,-5.0,31.89,88,100,11.72
65,Winneba,5.3511,-0.6231,GH,0.0,87.84,65,100,15.99
66,‘Āhuimanu,21.4447,-157.8378,US,-10.0,77.94,71,12,18.72
67,Vallenar,-28.5708,-70.7581,CL,-4.0,76.5,34,41,8.03
68,Ponta do Sol,32.6667,-17.1,PT,1.0,65.34,66,100,5.84
69,Bahía Solano,6.2262,-77.4044,CO,-5.0,82.47,75,43,8.52
70,Iqaluit,63.7506,-68.5145,CA,-4.0,37.51,80,95,26.35
71,Provideniya,64.3833,-173.3,RU,12.0,27.52,79,100,13.22
72,Northam,51.0333,-4.2167,GB,1.0,50.63,59,5,13.98
73,Nueve de Julio,-35.4444,-60.8831,AR,-3.0,75.25,46,0,12.91
74,Arraial do Cabo,-22.9661,-42.0278,BR,-3.0,73.51,69,100,12.71
75,Forsytheganj,52.6333,29.7333,BY,3.0,61.32,73,99,18.19
76,Saint-François,46.4154,3.9054,FR,2.0,54.84,65,75,8.01
77,Elko,41.0002,-115.5012,US,-7.0,69.96,12,79,23.55
78,Santa Quitéria do Maranhão,-3.5156,-42.5467,BR,-3.0,83.77,79,58,6.87
79,Tasiilaq,65.6145,-37.6368,GL,-2.0,36.32,54,1,5.99
80,Saint-Philippe,-21.3585,55.7679,RE,4.0,80.17,73,0,7.99
81,Novellara,44.843,10.7275,IT,2.0,66.15,53,20,13.53
82,Tuatapere,-46.1333,167.6833,NZ,12.0,59.76,68,13,5.19
83,Port Hedland,-20.3167,118.5667,AU,8.0,84.81,68,5,13.04
84,Lubango,-14.9172,13.4925,AO,1.0,73.78,53,100,7.56
85,Haines Junction,60.7522,-137.5108,CA,-7.0,46.4,61,97,4.7
86,Praia,14.9215,-23.5087,CV,-1.0,73.71,66,20,18.41
87,Salinópolis,-0.6136,-47.3561,BR,-3.0,81.97,75,99,6.13
88,Tuktoyaktuk,69.4541,-133.0374,CA,-6.0,22.41,90,99,7.47
89,Hebi,35.8992,114.1925,CN,8.0,70.27,12,100,11.97
90,Tuy Hoa,13.0833,109.3,VN,7.0,88.16,61,100,11.07
91,Armidale,-30.5167,151.65,AU,10.0,61.56,68,100,8.23
92,Cherskiy,68.75,161.3,RU,11.0,23.47,75,17,4.74
93,Ossora,59.2353,163.0719,RU,12.0,29.26,64,0,5.86
94,Punta Arenas,-53.15,-70.9167,CL,-3.0,44.51,69,43,8.81
95,Torbay,47.6666,-52.7314,CA,-2.5,42.66,63,56,28.43
96,Havøysund,70.9963,24.6622,NO,2.0,34.02,56,94,22.39
97,Wilmington,34.2257,-77.9447,US,-4.0,73.54,17,2,13.65
98,Limbang,4.75,115.0,MY,8.0,89.8,73,74,7.4
99,Suffolk,40.8668,-72.7996,US,-4.0,57.09,54,3,27.09
100,Huarmey,-10.0681,-78.1522,PE,-5.0,73.33,74,52,11.18
101,Lagoa,39.05,-27.9833,PT,0.0,60.75,82,94,21.05
102,Saurimo,-9.6608,20.3916,AO,1.0,77.63,77,100,7.11
103,Kitui,-1.367,38.0106,KE,3.0,80.56,57,88,9.17
104,Buraidah,26.326,43.975,SA,3.0,97.77,9,4,22.53
105,College,64.8569,-147.8028,US,-8.0,43.83,39,20,4.65
106,Hasaki,35.7333,140.8333,JP,9.0,66.87,46,16,31.32
107,Zhangaözen,43.3,52.8,KZ,5.0,76.71,15,79,16.24
108,Westport,41.1415,-73.3579,US,-4.0,60.01,46,4,20.38
109,Rolla,37.9514,-91.7713,US,-5.0,75.49,48,100,15.82
110,Duluth,46.7833,-92.1066,US,-5.0,77.22,40,3,12.84
111,Yerbogachën,61.2767,108.0108,RU,8.0,44.6,75,33,9.62
112,Nikolayevskaya,47.6139,41.5023,RU,3.0,74.37,54,27,7.81
113,Goderich,43.7501,-81.7165,CA,-4.0,59,60,62,26.51
114,Longyearbyen,78.2186,15.6401,SJ,2.0,23.54,75,13,5.12
115,Klaksvík,62.2266,-6.589,FO,1.0,39.56,66,100,17.81
116,Zhigansk,66.7697,123.3711,RU,9.0,34.36,97,100,9.57
117,Port Elizabeth,-33.918,25.5701,ZA,2.0,72.86,40,0,13.04
118,Fairbanks,64.8378,-147.7164,US,-8.0,43.93,39,18,4.81
119,Kedrovyy,56.1667,91.8167,RU,7.0,44.6,71,63,14
120,Río Gallegos,-51.6226,-69.2181,AR,-3.0,48.72,61,90,14.81
121,Geraldton,-28.7667,114.6,AU,8.0,71.22,35,0,18.57
122,Lucea,18.451,-78.1736,JM,-5.0,82.49,66,6,7.85
123,Sitka,57.0531,-135.33,US,-8.0,47.28,66,85,5.82
124,Hualmay,-11.0964,-77.6139,PE,-5.0,72.43,73,90,10.49
125,Mayor Pablo Lagerenza,-19.9309,-60.7718,PY,-4.0,92.75,28,4,12.37
126,Bambous Virieux,-20.3428,57.7575,MU,4.0,80.08,78,27,10.29
127,Leningradskiy,69.3833,178.4167,RU,12.0,17.94,90,100,21.9
128,Mbandaka,0.0487,18.2603,CD,1.0,89.44,51,66,3.71
129,Pānchgani,17.9167,73.8167,IN,5.5,86.34,34,45,7.4
130,Nuevo Progreso,23.1667,-97.95,MX,-5.0,84.04,61,100,12.82
131,Roald,62.5833,6.1333,NO,2.0,41.07,65,41,16.51
132,Nong Phai,15.9903,101.0618,TH,7.0,93.09,76,76,6.26
133,Kloulklubed,7.0419,134.2556,PW,9.0,86,78,92,18.77
134,Praia,14.9215,-23.5087,CV,-1.0,73.71,66,20,18.41
135,Faanui,-16.4833,-151.75,PF,-10.0,81,68,34,8.3
136,Wisconsin Rapids,44.3836,-89.8174,US,-5.0,78.8,58,94,18.81
137,Mahébourg,-20.4081,57.7,MU,4.0,80.22,77,23,10.22
138,Acapulco de Juárez,16.8634,-99.8901,MX,-5.0,87.82,53,44,13.58
139,Luziânia,-16.2525,-47.9503,BR,-3.0,73.36,63,100,10.58
140,Verkhnyaya Inta,65.9811,60.3094,RU,3.0,39.34,54,36,23.47
141,Old Saybrook,41.2918,-72.3762,US,-4.0,57.07,53,1,22.68
142,Guano,-1.5833,-78.6333,EC,-5.0,58.32,67,100,5.86
143,Kaitangata,-46.2817,169.8464,NZ,12.0,64,55,16,9.91
144,Dunedin,-45.8742,170.5036,NZ,12.0,61.77,53,6,10.58
145,Hong Kong,22.2855,114.1577,HK,8.0,80.55,67,35,11.05
146,Padang,-0.9492,100.3543,ID,7.0,86.74,67,42,5.73
147,Harper,4.375,-7.7169,LR,0.0,84.34,76,100,10.47
148,Avarua,-21.2078,-159.775,CK,-10.0,80.6,72,74,19.13
149,Agadez,19.75,10.25,NE,1.0,103.68,3,0,13.02
150,Alberton,46.8168,-64.0654,CA,-3.0,45.93,79,100,30.67
151,Grafton,42.207,-71.6856,US,-4.0,59.61,46,9,14.81
152,Srandakan,-7.9386,110.2506,ID,7.0,86.47,63,22,11.1
153,Cuicatlan,17.8,-96.9667,MX,-5.0,94.93,37,69,6.02
154,Tautira,-17.7333,-149.15,PF,-10.0,86,69,93,14.23
155,Bud,39.447,-86.1758,US,-4.0,68.74,42,24,16.37
156,Masallātah,32.6167,14.0,LY,2.0,72.84,59,100,14.67
157,São João da Barra,-21.6403,-41.0511,BR,-3.0,74.26,79,87,11.23
158,Bariloche,-41.1456,-71.3082,AR,-3.0,47.66,91,100,12.1
159,Souillac,-20.5167,57.5167,MU,4.0,81.5,74,25,10.42
160,Camacha,33.0833,-16.3333,PT,1.0,59.58,63,100,8.84
161,Al Bardīyah,31.7561,25.0865,LY,2.0,89.4,24,0,8.63
162,Boquim,-11.1469,-37.6206,BR,-3.0,79.9,83,89,12.8
163,Bethel,41.3712,-73.414,US,-4.0,59.95,45,6,15.99
164,Vestmannaeyjar,63.4427,-20.2734,IS,0.0,39.61,60,64,12.55
165,Manaus,-3.1019,-60.025,BR,-4.0,82,91,97,5.46
166,East London,-33.0153,27.9116,ZA,2.0,71.91,54,1,11.18
167,Ranfurly,-45.1333,170.1,NZ,12.0,57.99,47,0,4
168,Khatanga,71.9667,102.5,RU,7.0,32.36,98,38,8.05
169,Chełmża,53.1846,18.6047,PL,2.0,46.65,80,100,20.56
170,Castro,-24.7911,-50.0119,BR,-3.0,72.14,63,49,9.28
171,Ambilobe,-13.2,49.05,MG,3.0,90.14,57,8,4.32
172,Walvis Bay,-22.9575,14.5053,NA,2.0,77.85,41,29,14.38
173,Mikuni,36.2171,136.1519,JP,9.0,54.18,91,80,23.2
174,Palora,-1.7,-77.9333,EC,-5.0,68.7,94,100,2.89
175,Neiafu,-18.65,-173.9833,TO,13.0,82.4,76,100,25.68
176,Alekseyevsk,57.8406,108.3492,RU,8.0,50.11,68,77,7.2
177,Clarksburg,39.2807,-80.3445,US,-4.0,62.53,30,2,9.22
178,Sembakung,3.8167,117.25,ID,8.0,89.53,76,68,5.14
179,Saldanha,-33.0117,17.9442,ZA,2.0,74.17,31,0,14.83
180,Avera,33.194,-82.5271,US,-4.0,77.52,40,17,13.69
181,Skjervøy,70.0311,20.9714,NO,2.0,35.51,55,98,11.03
182,Mehrān,33.1222,46.1646,IR,4.5,92.88,13,5,8.7
183,Broome,42.2506,-75.833,US,-4.0,53.87,52,63,17.54
184,Chicama,-7.8447,-79.1469,PE,-5.0,77.43,62,30,10.74
185,Margate,51.3813,1.3862,GB,1.0,48.43,67,8,15.41
186,Katsuura,35.1333,140.3,JP,9.0,66.67,51,16,36.35
187,Port Hardy,50.6996,-127.4199,CA,-7.0,49.3,73,40,11.99
188,Metro,-5.1131,105.3067,ID,7.0,86.36,75,70,7.07
189,Eilat,29.5581,34.9482,IL,3.0,96.76,15,4,20.07
190,Merauke,-8.4667,140.3333,ID,9.0,84.15,68,96,14.67
191,Xining,36.6167,101.7667,CN,8.0,72.57,24,23,14.41
192,Kruisfontein,-34.0033,24.7314,ZA,2.0,76.15,27,2,9.82
193,Kyra,49.5776,111.9753,RU,9.0,63.48,25,100,15.46
194,Kieta,-6.2167,155.6333,PG,11.0,85.35,69,100,3.76
195,Farafangana,-22.8167,47.8333,MG,3.0,79.7,76,61,9.31
196,Okha,53.5739,142.9478,RU,11.0,32.92,86,100,15.39
197,Airai,-8.9266,125.4092,TL,9.0,72.55,44,95,3.85
198,Gravdal,68.1214,13.5031,NO,2.0,36.48,51,57,12.75
199,San Felipe,10.3399,-68.7425,VE,-4.0,85.82,59,70,6.24
200,Nikolskoye,59.7035,30.7861,RU,3.0,49.59,49,94,7.31
201,Belaya Gora,68.5333,146.4167,RU,11.0,31.37,86,86,7.14
202,Shingū,33.7333,135.9833,JP,9.0,62.04,49,61,17.29
203,Narsaq,60.9167,-46.05,GL,-2.0,45.3,36,82,28.63
204,Makkah al Mukarramah,21.4267,39.8261,SA,3.0,99.7,24,0,18.1
205,Atambua,-9.1061,124.8925,ID,8.0,82.99,51,87,5.23
206,Sinnamary,5.3833,-52.95,GF,-3.0,82.47,78,99,9.62
207,Bandarbeyla,9.4942,50.8122,SO,3.0,88.61,60,82,14.14
208,Borogontsy,62.6683,131.1683,RU,9.0,46.65,58,11,10.96
209,Lorengau,-2.0226,147.2712,PG,10.0,85.06,67,41,3.51
210,Luau,-10.7073,22.2247,AO,1.0,77.09,76,100,7.94
211,Great Yarmouth,52.6083,1.7305,GB,1.0,47.64,58,14,11.23
212,Fayaoué,-20.65,166.5333,NC,11.0,77.63,76,90,26.57
213,Shimoda,34.6667,138.95,JP,9.0,65.07,53,17,34.81
214,Barra de Tecoanapa,16.5167,-98.75,MX,-5.0,87.78,59,5,13.53
215,Gdynia,54.5189,18.5319,PL,2.0,45.21,76,100,17.83
216,The Valley,18.217,-63.0578,AI,-4.0,78.75,74,3,15.14
217,Nanortalik,60.1432,-45.2371,GL,-2.0,42.17,52,100,24.4
218,Tromsø,69.6496,18.957,NO,2.0,33.66,62,100,4.21
219,Saskylakh,71.9167,114.0833,RU,9.0,33.46,99,100,5.57
220,Tucupita,9.0622,-62.051,VE,-4.0,87.69,58,53,7.52
221,Seymchan,62.8833,152.4333,RU,11.0,35.37,87,98,2.19
222,Winnemucca,40.973,-117.7357,US,-7.0,72.19,14,89,23.96
223,Ol'ga,43.7444,135.2892,RU,10.0,59.56,36,20,5.5
224,Puerto Cabezas,14.0351,-83.3888,NI,-6.0,86.76,56,15,9.13
225,Dukat,62.55,155.55,RU,11.0,28.4,84,99,3.02
226,Cayenne,4.9333,-52.3333,GF,-3.0,82.24,80,63,8.77
227,Lodja,-3.4833,23.4333,CD,2.0,91.9,48,100,3.36
228,Uray,60.1247,64.7758,RU,5.0,52.68,88,100,15.37
229,Enumclaw,47.2043,-121.9915,US,-7.0,56.79,76,98,7.23
230,Rocha,-34.4833,-54.3333,UY,-3.0,73.63,59,0,7.67
231,Barcelos,41.5388,-8.6151,PT,1.0,61.59,43,1,11.41
232,Naze,28.3667,129.4833,JP,9.0,73.4,43,0,15.59
233,Dudhani,17.3667,76.3667,IN,5.5,100.62,25,47,16.82
234,Fortuna Foothills,32.6578,-114.4119,US,-7.0,98.4,10,99,16.96
235,Mehamn,71.0357,27.8492,NO,2.0,32.59,57,95,17.98
236,Coquimbo,-29.9533,-71.3436,CL,-4.0,63.61,67,86,6.13
237,Paamiut,61.994,-49.6678,GL,-2.0,40.8,68,3,16.53
238,Lady Frere,-31.7031,27.2329,ZA,2.0,69.08,33,0,4.85
239,Buala,-8.145,159.5921,SB,11.0,83.97,71,86,2.95
240,Sakakah,29.9697,40.2064,SA,3.0,89.64,14,5,19.98
241,Rehoboth,-23.3167,17.0833,NA,2.0,81.93,24,0,12.15
242,Quesnel,52.9999,-122.5029,CA,-7.0,58.1,33,100,9.44
243,George Town,5.4112,100.3354,MY,8.0,85.73,75,50,8.05
244,Abu Dhabi,24.4667,54.3667,AE,4.0,85.5,49,34,9.95
245,Urucará,-2.5364,-57.76,BR,-4.0,85.84,74,97,3.47
246,Shuyskoye,59.3736,41.0305,RU,3.0,47.37,52,100,9.71
247,Steamboat Springs,40.485,-106.8317,US,-6.0,71.53,31,100,18.01
248,Ayorou,14.7308,0.9174,NE,1.0,110.41,5,2,10.89
249,Cabo San Lucas,22.8909,-109.9124,MX,-6.0,77.02,51,0,9.75
250,Sortland,68.6949,15.4162,NO,2.0,34.99,61,90,5.73
251,Tapa,59.2606,25.9586,EE,3.0,46.9,39,13,7.52
252,Pevek,69.7008,170.3133,RU,12.0,16.52,84,98,10.27
253,Carballo,43.213,-8.691,ES,2.0,57.42,45,0,10.98
254,Toguchin,55.2353,84.3858,RU,7.0,53.11,53,32,13.87
255,Narasannapeta,18.4167,84.05,IN,5.5,92.88,53,2,18.7
256,Tshikapa,-6.4167,20.8,CD,2.0,85.53,75,100,3.42
257,Nazas,25.2333,-104.1333,MX,-5.0,83.37,26,0,16.37
258,Turbat,26.0023,63.044,PK,5.0,97.02,33,22,21.74
259,Mount Gambier,-37.8333,140.7667,AU,9.5,68,58,36,13.42
260,Muyezerskiy,63.9333,31.65,RU,3.0,40.62,46,71,11.23
261,Oddur,4.1213,43.8894,SO,3.0,91.51,42,21,12.26
262,Sur,22.5667,59.5289,OM,4.0,95.77,36,8,17.56
263,Ahipara,-35.1667,173.1667,NZ,12.0,63.73,53,1,10.2
264,Waipawa,-41.4122,175.5153,NZ,12.0,60.75,51,1,6.53
265,Kumul,42.8,93.45,CN,8.0,70.93,19,95,31.74
266,Ust-Maya,60.4167,134.5333,RU,9.0,48.9,58,64,10.16
267,Esim,4.8699,-2.2405,GH,0.0,87.37,69,86,12.1
268,Taft,31.7471,54.2088,IR,4.5,76.3,28,13,13.35
269,Vilhena,-12.7406,-60.1458,BR,-4.0,85.98,53,54,4.47
270,Rawson,-43.3002,-65.1023,AR,-3.0,66.51,46,100,20.83
271,Laguna,38.421,-121.4238,US,-7.0,83.14,28,2,15.64
272,Hornepayne,49.2138,-84.7705,CA,-4.0,44.56,92,100,13.38
273,Abu Samrah,35.3029,37.1841,SY,3.0,89.42,16,6,21.07
274,Saint George,37.1041,-113.5841,US,-6.0,88.7,10,100,22.3
275,Ilulissat,69.2167,-51.1,GL,-2.0,42.04,53,0,15.35
276,Mapua,-41.25,173.1,NZ,12.0,61,62,19,4.45
277,Takaka,-40.85,172.8,NZ,12.0,63,63,8,4.45
278,Korla,41.7597,86.1469,CN,8.0,73.35,16,99,19.91
279,Raudeberg,61.9875,5.1352,NO,2.0,41.65,61,16,21.54
280,Zonguldak,41.25,31.8333,TR,3.0,84.07,34,78,6.35
281,Manggar,-2.8833,108.2667,ID,7.0,86.9,64,81,11.14
282,Mananjary,-21.2167,48.3333,MG,3.0,84.22,68,11,8.88
283,Mil'kovo,54.7167,158.6167,RU,12.0,41.25,78,100,3.8
284,Ola,59.5833,151.2833,RU,11.0,38.05,57,55,6.17
285,Kaka,37.3482,59.6143,TM,5.0,85.44,31,100,11.74
286,Tabou,4.423,-7.3528,CI,0.0,84,75,100,10.29
287,Hay River,60.8156,-115.7999,CA,-6.0,31.66,79,100,10.71
288,Marzuq,14.4,46.4667,YE,3.0,78.12,47,100,7.96
289,Pisco,-13.7,-76.2167,PE,-5.0,72.61,70,7,8.93
290,Kiryat Gat,31.61,34.7642,IL,3.0,87.31,23,4,13.09
291,Tateyama,34.9833,139.8667,JP,9.0,66.43,51,16,38.48
292,Yangi Marg`ilon,40.4272,71.7189,UZ,5.0,86.05,39,9,11.54
293,Hamilton,39.1834,-84.5333,US,-4.0,67.39,34,1,11.61
294,Cidreira,-30.1811,-50.2056,BR,-3.0,71.89,56,0,17.36
295,Fortuna,40.5982,-124.1573,US,-7.0,55.72,82,73,12.03
296,Tobatí,-25.25,-57.0667,PY,-4.0,83.52,42,50,6.76
297,Meulaboh,4.1363,96.1285,ID,7.0,85.86,69,94,7.92
298,Fort Nelson,58.8053,-122.7002,CA,-7.0,53.6,58,98,8.81
299,Bairiki Village,1.3292,172.9752,KI,12.0,87.8,73,75,12.21
300,Tricase,39.9304,18.3553,IT,2.0,71.51,63,57,14.97
301,The Pas,53.8251,-101.2541,CA,-5.0,56.12,50,56,11.56
302,Saint-Augustin,51.226,-58.6502,CA,-4.0,39.22,96,100,22.53
303,Isfahan,32.6572,51.6776,IR,4.5,81.84,14,1,22.44
304,Ambulu,-8.345,113.6058,ID,7.0,85.68,64,100,6.29
305,Āron,24.3833,77.4167,IN,5.5,97.7,20,99,15.79
306,Baykit,61.67,96.37,RU,7.0,42.08,79,99,7.81
307,Ko Samui,9.5357,99.9357,TH,7.0,89.6,71,52,12.08
308,Muros,42.7762,-9.0603,ES,2.0,60.3,47,0,16.13
309,Constitución,-35.3333,-72.4167,CL,-4.0,55.47,96,100,10.87
310,Cockburn Town,21.4612,-71.1419,TC,-4.0,79.27,74,35,16.51
311,Copiapó,-27.3667,-70.3333,CL,-4.0,76.86,31,5,7.99
312,Yinchuan,38.4681,106.2731,CN,8.0,84.02,19,98,29.51
313,Butte,39.6499,-121.5677,US,-7.0,81.54,27,9,5.7
314,Richards Bay,-28.783,32.0377,ZA,2.0,71.49,67,15,6.15
315,Chul'man,56.8479,124.9104,RU,9.0,37.31,86,88,7.87
316,Waingapu,-9.6567,120.2641,ID,8.0,85.41,62,23,14.94
317,Dimitrovgrad,54.2139,49.6184,RU,4.0,58.14,58,40,9.24
318,Port Lincoln,-34.7333,135.8667,AU,9.5,63.52,63,100,13.6
319,Skoropuskovskiy,56.3667,38.1667,RU,3.0,53.92,48,100,6.35
320,Korčula,42.9622,17.1369,HR,2.0,64.2,83,65,11.81
321,La Palma,33.8464,-118.0467,US,-7.0,70.07,57,100,11.18
322,Todos Santos,23.45,-110.2167,MX,-6.0,75.96,54,0,8.79
323,Mar del Plata,-38.0023,-57.5575,AR,-3.0,69.69,61,100,13.65
324,Nouadhibou,20.931,-17.0347,MR,0.0,67.12,82,0,28.77
325,Mabamba,-3.5983,30.5019,TZ,3.0,73.54,77,100,4.12
326,Orotukan,62.2667,151.7,RU,11.0,32.04,95,99,3.31
327,Kangundo,-1.2979,37.3471,KE,3.0,81.9,40,55,12.55
328,Uruçuca,-14.5931,-39.2844,BR,-3.0,79.7,94,100,6.53
329,Dabola,10.75,-11.1167,GN,0.0,102.7,30,21,6.22
330,City of San Pedro,14.35,121.0167,PH,8.0,92.52,52,20,17.09
331,Mbour,14.422,-16.9638,SN,0.0,83.75,41,8,19.95
332,Rome,43.2128,-75.4557,US,-4.0,49.77,49,66,16.4
333,Melfi,40.9965,15.6514,IT,2.0,66.4,53,93,12.59
334,Vanimo,-2.6741,141.3028,PG,10.0,84.38,76,41,4.34
335,Palmer,42.1584,-72.3287,US,-4.0,58.59,48,6,13.73
336,Husavik,66.0449,-17.3389,IS,0.0,33.96,68,51,7.61
337,Hella,67.2,14.4333,NO,2.0,36.01,71,100,11.88
338,Talnakh,69.4865,88.3972,RU,7.0,30.69,94,98,6.04
339,Genoa,44.4129,8.9573,IT,2.0,60.42,80,94,12.01
340,Jiujiang,29.7333,115.9833,CN,8.0,76.42,56,10,20.36
341,Lebu,-37.6167,-73.65,CL,-4.0,56.28,88,100,17.85
342,Bengkulu,-3.8004,102.2655,ID,7.0,85.62,65,73,8.3
343,Mazatlán,23.2167,-106.4167,MX,-6.0,80.28,45,0,11.12
344,Beringovskiy,63.05,179.3167,RU,12.0,24.48,81,97,14.36
345,Salalah,17.0151,54.0924,OM,4.0,87.94,64,92,14.88
346,Rio Claro,-22.4114,-47.5614,BR,-3.0,75.74,53,100,4.27
347,Matehuala,23.65,-100.65,MX,-5.0,86.11,26,2,21.5
348,Lamar,33.6668,-95.5836,US,-5.0,69.8,74,100,10.11
349,Grand Gaube,-20.0064,57.6608,MU,4.0,79.68,79,10,11.9
350,Safi,32.2994,-9.2372,MA,0.0,67.23,53,0,25.93
351,Olafsvik,64.8945,-23.7142,IS,0.0,39.09,60,5,20.29
352,Carnarvon,-24.8667,113.6333,AU,8.0,75.65,56,100,20.13
353,Derzhavīnsk,51.1,66.3167,KZ,6.0,68.13,29,32,15.41
354,Puerto Escondido,15.85,-97.0667,MX,-5.0,88.59,60,95,12.1
355,Nanchang,28.6833,115.8833,CN,8.0,80.6,60,77,11.41
356,Touros,-5.1989,-35.4608,BR,-3.0,87.82,51,10,18.72
357,Laguna de Perlas,12.3429,-83.6712,NI,-6.0,84.54,61,16,8.43
358,Bataiporã,-22.2953,-53.2711,BR,-4.0,90.25,40,0,8.43
359,Östersund,63.1792,14.6357,SE,2.0,41.83,44,52,5.41
360,Turukhansk,65.8167,87.9833,RU,7.0,42.33,66,83,10.8
361,Baton Rouge,30.4508,-91.1545,US,-5.0,77.79,58,100,10
362,Dalton,34.7698,-84.9702,US,-4.0,75.2,28,11,7.81
363,Iquique,-20.2208,-70.1431,CL,-4.0,71.71,61,36,10.27
364,Stornoway,58.2093,-6.3865,GB,1.0,44.24,66,100,5.86
365,Plainview,40.7765,-73.4673,US,-4.0,62.29,38,3,21.3
366,Ajdabiya,30.7554,20.2263,LY,2.0,105.93,8,92,14.83
367,Santiago del Estero,-27.7951,-64.2615,AR,-3.0,82.42,33,19,14.56
368,Yaan,7.3833,8.5667,NG,1.0,100.62,45,99,13.18
369,Plettenberg Bay,-34.0527,23.3716,ZA,2.0,72.09,36,0,7.25
370,Deer Lake,49.1667,-57.4316,CA,-2.5,44.44,89,100,17.27
371,Quryq,43.2,51.65,KZ,5.0,72.54,26,99,15.12
372,Laas,46.6166,10.7002,IT,2.0,47.48,97,100,7.34
373,Monroe,43.1501,-77.6831,US,-4.0,52.3,49,11,20.04
374,Marsá Maţrūḩ,31.3525,27.2453,EG,2.0,85.3,30,0,9.1
375,Nicoya,10.1483,-85.452,CR,-6.0,91.51,44,77,6.87
376,Rodolfo Sánchez Taboada,31.7167,-116.5667,MX,-7.0,73.67,50,100,10.83
377,Homer,59.6425,-151.5483,US,-8.0,45.41,54,100,5.86
378,Otavi,-19.65,17.3333,NA,2.0,79.93,30,44,14.29
379,Ugoofaaru,5.6667,73.0,MV,5.0,84.72,70,48,5.73
380,Kindia,10.0569,-12.8658,GN,0.0,97.41,44,84,6.42
381,Kampot,10.6167,104.1833,KH,7.0,90.18,64,46,7.54
382,Kashgar,39.4547,75.9797,CN,8.0,88.02,13,47,16.51
383,Kahului,20.8947,-156.47,US,-10.0,78.46,69,7,14.54
384,Chapada dos Guimarães,-15.4606,-55.7497,BR,-4.0,86.32,42,2,8.21
385,Bull Savanna,17.8868,-77.5902,JM,-5.0,83.93,57,5,14.97
386,Vila Franca do Campo,37.7167,-25.4333,PT,0.0,65.84,90,100,13.73
387,Sabha,27.0377,14.4283,LY,2.0,104.54,4,36,20.38
388,Tongren,27.7172,109.1853,CN,8.0,86.32,58,100,9.24
389,Hobyo,5.3505,48.5268,SO,3.0,88.61,60,34,14.72
390,Sept-Îles,50.2001,-66.3821,CA,-4.0,47.07,59,99,23.31
391,Najrān,17.4924,44.1277,SA,3.0,86.27,18,100,17.69
392,Putna,47.8667,25.6167,RO,3.0,69.22,68,86,10.89
393,Vancouver,49.2497,-123.1193,CA,-7.0,56.21,59,25,8.39
394,Kathu,7.9178,98.3332,TH,7.0,86.9,70,51,11.01
395,Athens,37.9795,23.7162,GR,3.0,84.83,24,100,5.75
396,Kazachinskoye,57.6953,93.2761,RU,7.0,43.59,68,87,12.77
397,Chokurdakh,70.6333,147.9167,RU,11.0,25.54,83,7,5.19
398,Tianpeng,30.9866,103.9393,CN,8.0,80.6,65,37,13.51
399,Vardø,70.3705,31.1107,NO,2.0,33.93,56,99,16.75
400,Mersin Province,36.862,34.6509,TR,3.0,80.71,48,91,7.54
401,Mananara,-16.1667,49.7667,MG,3.0,83.41,69,42,5.01
402,Sumenep,-7.0167,113.8667,ID,7.0,86.54,67,60,14.79
403,Isiro,2.7739,27.616,CD,2.0,74.37,85,100,5.19
404,Sumbawanga,-7.9667,31.6167,TZ,3.0,70.32,76,55,5.14
405,Kiruna,67.8557,20.2251,SE,2.0,28.27,91,100,9.78
406,Acajutla,13.5928,-89.8275,SV,-6.0,84.65,68,23,10.07
407,Iquitos,-3.7481,-73.2472,PE,-5.0,79.97,81,80,5.06
408,Penzance,50.1186,-5.5371,GB,1.0,50.16,61,4,13.42
409,Havre-St-Pierre,50.2334,-63.5986,CA,-4.0,45.48,62,100,17.02
410,Fuzhou,26.0614,119.3061,CN,8.0,80.24,64,20,8.16
411,el Prat de Llobregat,41.3278,2.0947,ES,2.0,59.94,69,99,17.29
412,Lázaro Cárdenas,17.9583,-102.2,MX,-5.0,85.17,56,51,12.71
413,Anyang,36.0994,114.3289,CN,8.0,71.89,11,100,12.24
414,Waitara,-38.925,174.25,NZ,12.0,59.68,60,3,13.69
415,Kananga,-5.8958,22.4178,CD,2.0,86.68,55,80,6.17
416,Mossamedes,-15.1961,12.1522,AO,1.0,84.58,61,78,15.77
417,Barstow,34.8986,-117.0228,US,-7.0,87.33,9,100,34.11
418,Trofors,65.5333,13.4063,NO,2.0,36.75,74,92,6.69
419,Nabire,-3.3667,135.4833,ID,9.0,88.18,61,19,5.66
420,Kungurtug,50.5994,97.5228,RU,7.0,37.36,75,100,14.23
421,Rāvar,31.2656,56.8055,IR,4.5,79.99,43,88,13
422,Imphal,24.8167,93.95,IN,5.5,90.7,60,25,10.92
423,Vila Velha,-20.3297,-40.2925,BR,-3.0,76.21,69,98,13.49
424,North Bend,43.4065,-124.2243,US,-7.0,56.03,71,95,12.03
425,Lamu,-2.2717,40.902,KE,3.0,85.28,68,78,16.02
426,Atasū,48.6814,71.6433,KZ,6.0,65.26,17,72,15.46
427,Sechura,-5.5569,-80.8222,PE,-5.0,80.71,56,14,15.68
428,Oktyabr'skoye,43.0645,44.7417,RU,3.0,67.62,64,82,6.98
429,Novo Oriente,-5.5344,-40.7742,BR,-3.0,88.39,50,74,8.61
430,Road Town,18.4167,-64.6167,VG,-4.0,79.18,70,6,14.99
431,Guatire,10.4762,-66.5427,VE,-4.0,82.72,69,59,4.43
432,Ust-Tsilma,65.441,52.1498,RU,3.0,36.21,52,89,19.01
433,Vao,-22.6667,167.4833,NC,11.0,74.73,68,100,28.01
434,Clyde River,70.4692,-68.5914,CA,-4.0,28.71,93,72,3.69
435,Tabuk,17.4189,121.4443,PH,8.0,92.95,54,2,11.83
436,Yatou,37.15,122.3833,CN,8.0,60.4,37,0,16.93
437,Cabinda,-5.55,12.2,AO,1.0,85.93,63,100,9.28
438,San Quintín,30.4833,-115.95,MX,-7.0,69.08,65,91,17.56
439,Kerrobert,51.9168,-109.1348,CA,-6.0,58.95,33,100,14.25
440,Sorong,-0.8833,131.25,ID,9.0,84.83,69,88,9.69
441,Hervey Bay,-25.2986,152.8535,AU,10.0,75.2,70,64,16.75
442,Nuuk,64.1835,-51.7216,GL,-2.0,42.1,52,0,9.64
443,Pasni,25.2631,63.471,PK,5.0,84.67,61,48,14.27
444,Chilca,-12.5211,-76.7372,PE,-5.0,69.13,80,14,6.67
445,Kindu,-2.95,25.95,CD,2.0,84.99,62,100,3.09
446,Flinders,-34.5833,150.8552,AU,10.0,75,64,100,12.28
447,Pavino,59.1139,46.1414,RU,3.0,46.08,53,95,8.37
448,Chistoye,56.5375,43.0045,RU,3.0,54.45,48,73,8.21
449,Hambantota,6.1241,81.1185,LK,5.5,85.96,76,37,10.69
450,Havelock,34.8791,-76.9013,US,-4.0,71.28,25,42,15.64
451,Beloha,-25.1667,45.05,MG,3.0,78.82,58,43,13.56
452,Raymond Terrace,-32.75,151.75,AU,10.0,73.94,58,64,5.37
453,Camalú,30.85,-116.0667,MX,-7.0,73.17,52,96,13.31
454,Nānākuli,21.3906,-158.1547,US,-10.0,79.59,64,7,17.05
455,Orange,33.7,-117.7675,US,-7.0,71.92,52,100,12.21
456,Ruwi,23.5996,58.5507,OM,4.0,93.33,39,65,13.94
457,Omsukchan,62.5333,155.8,RU,11.0,29.59,84,99,3.27
458,Soyo,-6.1349,12.3689,AO,1.0,84.33,69,87,10.33
459,Yaroslavl,57.6299,39.8737,RU,3.0,51.03,60,86,7.54
460,Troitskoye,52.9821,84.6757,RU,7.0,52.23,47,25,11.41
461,Huilong,31.8111,121.655,CN,8.0,68.41,41,1,16.87
462,Plátanos,37.6667,21.6167,GR,3.0,82.13,36,90,6.82
463,Berbera,10.4396,45.0143,SO,3.0,86.94,64,78,14.47
464,Cangzhou,38.3167,116.8667,CN,8.0,71.28,17,51,11.68
465,Maceió,-9.6658,-35.7353,BR,-3.0,81.36,79,96,14.03
466,Adrar,20.5022,-10.0711,MR,0.0,97.7,20,60,13.65
467,Bathsheba,13.2167,-59.5167,BB,-4.0,80.37,72,100,14.14
468,Grindavik,63.8424,-22.4338,IS,0.0,41.11,47,11,12.64
469,Liberal,37.0431,-100.921,US,-5.0,83.14,22,0,23.31
470,Sistranda,63.7256,8.834,NO,2.0,40.5,55,92,9.71
471,Mzimba,-11.9,33.6,MW,2.0,74.03,66,73,10.8
472,Aberystwyth,52.4155,-4.0829,GB,1.0,49.57,69,33,11.18
473,Ngunguru,-35.6167,174.5,NZ,12.0,69.01,53,0,7.9
474,Kitimat,54.0524,-128.6534,CA,-7.0,51.01,95,100,4.14
475,Poum,-20.2333,164.0167,NC,11.0,78.26,72,90,20.36
476,Novo Aripuanã,-5.1206,-60.3797,BR,-4.0,86.92,85,96,2.68
477,Auki,-8.7676,160.7034,SB,11.0,82.83,75,95,3.67
478,Pedernales,18.0384,-71.744,DO,-4.0,84.47,61,8,9.46
479,George Town,5.4112,100.3354,MY,8.0,85.73,75,50,8.05
480,Mountain Home,43.133,-115.6912,US,-6.0,71.6,33,22,31.61
481,Dogondoutchi,13.6393,4.0287,NE,1.0,108.68,5,5,10.04
482,Kimbe,-5.5502,150.1429,PG,10.0,90.73,53,42,5.23
483,Whitianga,-36.8333,175.7,NZ,12.0,66.99,57,0,4.32
484,Pamplonita,7.437,-72.638,CO,-5.0,73.99,79,51,5.48
485,Zeya,53.75,127.2667,RU,9.0,55.56,38,69,6.64
486,Marystown,47.1666,-55.1483,CA,-2.5,43.74,69,87,28.01
487,Lompoc,34.6391,-120.4579,US,-7.0,66.42,50,100,18.01
488,Altay,47.8667,88.1167,CN,8.0,49.1,32,26,13.73
489,Omboué,-1.5746,9.2618,GA,1.0,86.14,76,88,8.21
490,Kenora,49.8167,-94.4337,CA,-5.0,72.18,35,94,12.57
491,Yulara,-25.2406,130.9889,AU,9.5,84.16,23,36,11.72
492,Sechelt,49.4664,-123.7694,CA,-7.0,58.44,58,32,8.46
493,Alyangula,-13.8483,136.4192,AU,9.5,87.8,64,6,14.99
494,Wanning,18.8003,110.3967,CN,8.0,86.59,65,99,12.15
495,Filimonovo,56.2011,95.4611,RU,7.0,49.75,61,60,21.43
496,Songjianghe,42.1859,127.479,CN,8.0,57.36,41,23,11.7
497,Molokovo,58.1661,36.7628,RU,3.0,50.94,41,36,8.66
498,Lincoln,40.8,-96.667,US,-5.0,80.85,37,0,24.45
499,Verkh-Usugli,52.7,115.1667,RU,9.0,44.6,71,100,7
500,Akureyri,65.6835,-18.0878,IS,0.0,36.23,62,51,5.44
501,Porto-Novo,6.4965,2.6036,BJ,1.0,91.54,56,90,12.24
502,Mariehamn,60.0973,19.9348,AX,3.0,40.82,68,85,14.92
503,Marsh Harbour,26.5412,-77.0636,BS,-4.0,80.38,69,67,10.92
504,Villaviciosa,43.4813,-5.4357,ES,2.0,56.95,56,13,10.13
505,Svetlaya,46.5389,138.3297,RU,10.0,39.09,97,100,6.17
506,Chitungwiza,-18.0127,31.0756,ZW,2.0,69.22,79,99,11.88
507,Hofn,64.2539,-15.2082,IS,0.0,38.03,54,97,14.85
508,Philadelphia,39.9523,-75.1638,US,-4.0,64.45,37,6,17.31
509,Ipixuna,-1.7625,-48.8043,BR,-3.0,84.85,95,100,3.89
510,Gizo Government Station,-8.103,156.8419,SB,11.0,82.62,72,100,10
511,Mayna,54.1135,47.6231,RU,4.0,55.42,53,49,7.23
512,Bestöbe,52.4994,73.0975,KZ,6.0,65.46,27,39,16.11
513,Cisterna,-11.9287,-41.8553,BR,-3.0,83.88,47,100,14.5
514,Zima,53.9202,102.0442,RU,8.0,53.2,47,100,16.17
515,Linqiong,30.4159,103.4609,CN,8.0,84.51,57,17,12.93
516,Campos do Jordão,-22.7394,-45.5914,BR,-3.0,64.09,52,94,3.33
517,Mimarsinan,41.0032,28.5377,TR,3.0,67.6,63,99,9.22
518,Sola,-13.8833,167.55,VU,11.0,79,87,97,19.84
519,Redlands,34.0556,-117.1825,US,-7.0,84.51,16,91,9.6
520,Piaçabuçu,-10.4056,-36.4344,BR,-3.0,83.53,67,94,15.73
521,Bahía Blanca,-38.7196,-62.2724,AR,-3.0,73.99,39,99,15.17
522,Timizart,36.8,4.2667,DZ,1.0,68.09,57,100,7.27
523,Amapá,1.0,-52.0,BR,-3.0,84.06,72,89,4.72
524,Xai-Xai,-25.0519,33.6442,MZ,2.0,76.35,61,7,15.52
525,Brainerd,46.358,-94.2008,US,-5.0,80.94,36,4,14.27
526,Benjamin Constant,-4.3831,-70.0311,BR,-5.0,75.2,99,100,2.77
527,Bubaque,11.2833,-15.8333,GW,0.0,79,59,25,24.09
528,Aswān,24.0934,32.907,EG,2.0,104.99,7,0,15.23
529,Champerico,14.3,-91.9167,GT,-6.0,86.52,63,18,13.22
530,Gao,16.6362,1.637,ML,0.0,108.3,7,0,19.39
531,Temirtau,50.0544,72.9483,KZ,6.0,62.74,24,4,9.46
532,Kushmurun,52.4503,64.6311,KZ,6.0,69.94,30,94,21.09
533,Serov,59.6033,60.5787,RU,5.0,53.26,47,57,14.29
534,Diamantino,-14.4086,-56.4461,BR,-4.0,89.26,51,7,6.38
535,Khovd,48.0056,91.6419,MN,7.0,47.34,20,52,25.3
536,Kattivākkam,13.2167,80.3167,IN,5.5,89.1,67,30,14.92
537,Bolobo,-2.1667,16.2333,CD,1.0,87.26,61,77,3.85
538,Butembo,0.15,29.2833,CD,2.0,68.63,83,100,3.24
539,Ouésso,1.6136,16.0517,CG,1.0,97.66,41,57,3.67
540,Macenta,8.5435,-9.471,GN,0.0,93.78,52,88,5.01
541,Monschau,50.55,6.25,DE,2.0,45.95,52,66,10.25
542,Middle Island,40.8843,-72.9373,US,-4.0,57.63,52,3,25.9
543,Kondinskoye,59.6481,67.41,RU,5.0,51.28,86,100,19.3
544,Buin,-33.7333,-70.75,CL,-4.0,66.45,59,100,4.88
545,Santa Maria,-29.6842,-53.8069,BR,-3.0,81.91,39,0,6.06
546,Port Macquarie,-31.4333,152.9167,AU,10.0,69.98,79,100,6.35
547,Montrose,38.4166,-108.2673,US,-6.0,70.99,19,88,17.38
548,Tommot,58.9564,126.2925,RU,9.0,45.12,77,92,6.82
549,Vilyuysk,63.7553,121.6247,RU,9.0,39.25,90,100,7.74
550,Puerto del Rosario,28.5004,-13.8627,ES,1.0,68.58,54,31,18.72
551,La Providencia,28.7167,-111.5833,MX,-7.0,89.91,23,4,15.37
552,Yelizovo,53.1873,158.3805,RU,12.0,35.92,94,94,3.83
553,Kavaratti,10.5669,72.642,IN,5.5,85.82,71,84,4.12
