,City Name,Latitude,Longitude,Max Temperature,Humidity,Cloudiness,Wind Speed
0,Qaanaaq,77.484,-69.3632,32.11,77,97,11.68
1,Qasigiannguit,68.8193,-51.1922,34.7,81,40,5.68
2,Baruun-Urt,46.6806,113.2792,43.74,20,12,15.57
3,Bluff,-46.6,168.3333,57.61,80,98,23.62
4,Ushuaia,-54.8,-68.3,43.23,82,96,11.65
5,Butaritari,3.0707,172.7902,82.94,77,97,12.66
6,Coari,-4.085,-63.1414,79.2,94,96,5.66
7,Rikitea,-23.1203,-134.9692,76.46,66,23,11.52
8,Leningradskiy,69.3833,178.4167,27.55,75,24,8.75
9,Carnarvon,-24.8667,113.6333,82.27,41,0,19.86
10,Antigonish,45.6169,-61.9986,47.57,91,100,12.64
11,Murchison,-41.8,172.3333,60.62,65,69,2.71
12,Barrow,71.2906,-156.7887,26.4,86,90,8.79
13,Atuona,-9.8,-139.0333,79.68,71,87,14.54
14,New Norfolk,-42.7826,147.0587,64.89,70,78,5.73
15,Albany,42.6001,-73.9662,70.21,58,89,10.4
16,Rørvik,64.8621,11.2373,38.86,67,58,12.17
17,Paamiut,61.994,-49.6678,36.63,89,100,17.09
18,Yar-Sale,66.8333,70.8333,26.62,88,96,8.52
19,Bethel,41.3712,-73.414,76.78,48,93,8.01
20,Rome,43.2128,-75.4557,65.89,81,97,7.16
21,Maţāy,28.419,30.7792,95.4,13,0,16.78
22,Bredasdorp,-34.5322,20.0403,66.85,57,37,12.71
23,Elliot Lake,46.3834,-82.6331,46.44,95,100,9.37
24,Hithadhoo,-0.6,73.0833,84.16,69,96,7.63
25,Puri,19.8,85.85,87.12,70,42,18.7
26,Tasiilaq,65.6145,-37.6368,35.62,83,76,3.31
27,Castro,-24.7911,-50.0119,69.35,64,90,7.18
28,Jamestown,42.097,-79.2353,70.36,78,100,15.48
29,Punta Arenas,-53.15,-70.9167,45.37,64,29,28.27
30,Cape Town,-33.9258,18.4232,64.26,68,18,15.46
31,Myaundzha,63.0494,147.1858,32.99,95,89,3.47
32,Coruripe,-10.1256,-36.1756,84.83,67,86,11.52
33,Kapaa,22.0752,-159.319,75.9,78,90,12.75
34,Lorengau,-2.0226,147.2712,85.12,67,84,6.6
35,Qui Nhon,13.7667,109.2333,82.81,72,100,9.53
36,Ilulissat,69.2167,-51.1,34.83,71,19,7.07
37,Dunedin,-45.8742,170.5036,61.68,71,95,5.21
38,Guozhen,34.3659,107.359,86.16,18,1,17.69
39,Mataura,-46.1927,168.8643,59.79,78,98,6.44
40,Örnsköldsvik,63.2909,18.7153,38.08,70,100,5.03
41,Palmer,42.1584,-72.3287,73.51,46,86,6.4
42,Port Alfred,-33.5906,26.891,72.45,60,97,17.52
43,Līsakovsk,52.5369,62.4936,57.27,48,85,11.18
44,Havelock,34.8791,-76.9013,79.02,48,98,16.53
45,Puerto Ayora,-0.7393,-90.3518,80.6,80,64,10.31
46,George Town,5.4112,100.3354,84.83,70,76,6.91
47,La Ronge,55.1001,-105.2842,33.98,40,100,9.13
48,Alofi,-19.0595,-169.9187,82.29,34,91,20.83
49,‘Āhuimanu,21.4447,-157.8378,77.63,69,75,10.04
50,Avarua,-21.2078,-159.775,84.2,74,20,14.63
51,Lompoc,34.6391,-120.4579,71.83,39,0,14.5
52,Half Moon Bay,37.4636,-122.4286,66.15,64,7,11.14
53,Jerantut,3.936,102.3626,87.06,68,99,2.21
54,Buala,-8.145,159.5921,82.65,74,66,4.76
55,Tuatapere,-46.1333,167.6833,60.85,81,92,8.01
56,Norman Wells,65.282,-126.8329,32,65,52,13
57,Itaituba,-4.2761,-55.9836,82.94,76,100,3.02
58,Ulladulla,-35.35,150.4667,67.44,73,60,7.43
59,Kharp,66.8014,65.8081,28.11,92,100,7.45
60,Severo-Kuril'sk,50.6789,156.125,39,86,99,9.8
61,Bījār,35.8668,47.6051,71.02,21,0,12.46
62,City of San Pedro,14.35,121.0167,91.45,51,89,9.46
63,Ribeira Grande,38.5167,-28.7,60.98,81,71,18.86
64,Huambo,-12.7761,15.7392,78.55,46,6,5.95
65,Santa Cruz,30.4202,-9.5982,73.13,54,1,19.19
66,Brae,60.3964,-1.353,44.73,60,93,14.7
67,Solnechnyy,50.7214,136.6319,47.62,82,100,6.42
68,Alice Springs,-23.7,133.8833,75.99,30,0,14.29
69,Margherita,27.2833,95.6833,103.53,18,2,6.76
70,Hitiaa,-17.6,-149.3,87.8,62,24,12.08
71,Honningsvåg,70.9821,25.9704,30.34,64,100,19.62
72,Saint Paul Harbor,57.79,-152.4072,44.6,87,90,14.63
73,Magadan,59.5667,150.8,35.76,80,17,5.61
74,Saint-Philippe,-21.3585,55.7679,77.94,82,42,15.46
75,Upernavik,72.7868,-56.1549,31.12,84,79,15.55
76,Lagoa,39.05,-27.9833,59.88,79,98,16.93
77,Villacarrillo,38.1156,-3.0848,63.32,59,99,14.12
78,Bozoum,6.3193,16.3799,95.11,32,75,8.46
79,Koungou,-12.7336,45.2042,83.23,73,12,11.07
80,St. George's,12.0564,-61.7485,82.4,71,83,14.14
81,Bose,45.4612,8.0137,57.83,73,99,4.27
82,Saint-François,46.4154,3.9054,53.78,96,100,9.37
83,Narsaq,60.9167,-46.05,44.6,65,33,6.29
84,Cabo San Lucas,22.8909,-109.9124,75.52,56,8,16.28
85,Nome,64.5011,-165.4064,31.08,64,20,13.94
86,Puerto del Rosario,28.5004,-13.8627,68.54,68,67,11.61
87,Arroyo de la Encomienda,41.6096,-4.7969,61.61,64,89,12.44
88,San Patricio,28.017,-97.5169,86.27,65,77,25.59
89,Umeå,63.8284,20.2597,38.61,57,97,6.04
90,Oruzgan,32.8333,66.0,82.31,18,100,14.16
91,Caála,-12.8525,15.5606,77.68,47,12,6.51
92,Erzin,36.9559,36.2,80.85,54,58,6.6
93,Beyneu,45.3167,55.2,70.18,27,100,17.87
94,Hobart,-42.8794,147.3294,64.54,66,73,5.12
95,Lata,40.1629,-8.3327,61.92,73,76,7.67
96,Port Hardy,50.6996,-127.4199,49.3,93,94,17.07
97,Buchanan,5.8808,-10.0467,84.6,66,96,8.21
98,Vao,-22.6667,167.4833,74.73,55,67,20.8
99,Tumut,-35.3,148.2167,71.31,44,24,5.35
100,Vaini,-21.2,-175.2,79.57,81,100,22.5
101,Laas,46.6166,10.7002,51.78,90,88,4.07
102,Santa Rosa,14.3122,121.1114,90.91,56,87,7.05
103,Mar del Plata,-38.0023,-57.5575,71.4,61,73,11.88
104,Busselton,-33.65,115.3333,73,64,100,22.73
105,Nemuro,43.3236,145.575,44.85,80,100,11.52
106,Yining,29.0361,114.5636,80.55,43,76,8.68
107,Bathsheba,13.2167,-59.5167,80.74,71,100,18.28
108,Chokurdakh,70.6333,147.9167,27.55,90,92,12.93
109,Faanui,-16.4833,-151.75,82.29,71,79,12.77
110,Bambous Virieux,-20.3428,57.7575,78.15,80,37,18.57
111,Wattegama,6.7989,81.4808,91.26,54,99,4.47
112,Kuchinda,21.7333,84.35,110.16,17,27,9.89
113,Hermanus,-34.4187,19.2345,63.09,75,73,10.47
114,Portland,45.5234,-122.6762,70.92,39,85,3.06
115,Ostrovnoy,68.0531,39.5131,27.59,79,98,14.56
116,Tarko-Sale,64.9225,77.785,34.16,100,100,16.58
117,Port Blair,11.6667,92.75,86.61,64,26,4.61
118,Senno,59.5336,33.9167,45.52,42,98,7.72
119,Provideniya,64.3833,-173.3,36.05,62,25,9.55
120,Blagoyevo,63.3667,47.9167,41.34,34,99,6.55
121,Yellowknife,62.456,-114.3525,24.03,65,89,16.84
122,Krosno Odrzańskie,52.0549,15.0988,59.59,43,58,9.93
123,Lábrea,-7.2586,-64.7981,87.48,67,84,5.12
124,Smithers,54.7804,-127.1743,50,72,94,3.83
125,Caborca,30.5838,-111.101,75,26,91,19.28
126,Yulara,-25.2406,130.9889,78.37,27,0,13
127,Takoradze,4.8845,-1.7554,87.66,66,97,12.03
128,Rafaela,-31.2503,-61.4867,71.02,55,0,6.4
129,Katsuura,35.1333,140.3,66.72,79,95,35.08
130,Yulin,22.6333,110.15,80.92,60,97,6.67
131,Tiarei,-17.5333,-149.3333,87.8,62,24,12.44
132,Cayenne,4.9333,-52.3333,80.01,83,97,10.18
133,Kaitangata,-46.2817,169.8464,60.6,72,99,9.37
134,Riyadh,24.6877,46.7219,96.17,14,0,14.14
135,Honiara,-9.4333,159.95,83.71,70,85,4.61
136,East London,-33.0153,27.9116,72.5,56,100,16.62
137,Tema,5.667,-0.0166,89.96,61,98,13.04
138,Mogadishu,2.0371,45.3438,86.29,64,9,13.13
139,Dikson,73.5069,80.5464,29.93,86,82,8.72
140,Khatanga,71.9667,102.5,34.88,99,100,12.59
141,Mount Gambier,-37.8333,140.7667,70.5,56,6,7.9
142,Amga,60.8953,131.9608,35.82,92,100,5.17
143,Naze,28.3667,129.4833,69.8,90,100,23.91
144,Victoria Point,-27.5833,153.3,71.76,70,100,13.13
145,Souillac,-20.5167,57.5167,78.31,80,27,18.39
146,Jumla,29.2747,82.1838,68.07,32,53,6.71
147,Krasnoarmeysk,51.0239,45.6969,54.75,42,3,9.6
148,Skuratovskiy,54.1108,37.6011,49.5,56,84,11.05
149,Nador,35.174,-2.9287,68.68,68,100,9.26
150,Turan,16.0678,108.2208,82.81,69,59,11.3
151,Province of Mantua,45.1667,10.7833,58.75,66,98,6.76
152,Airai,-8.9266,125.4092,76.87,41,68,2.59
153,Kudahuvadhoo,2.6708,72.8944,84.04,63,22,9.06
154,Lebu,-37.6167,-73.65,63.01,70,99,6.78
155,Eyl,7.9803,49.8164,88.99,58,58,14.41
156,Mahébourg,-20.4081,57.7,78.19,80,29,19.06
157,Hilo,19.7297,-155.09,78.33,51,75,8.3
158,Kavieng,-2.5744,150.7967,84.4,71,94,10.83
159,Bandarbeyla,9.4942,50.8122,86.31,66,100,12.75
160,Xihe,31.6864,113.4659,85.8,35,0,16.13
161,Wasilla,61.5814,-149.4394,54.61,37,61,6.26
162,Ahipara,-35.1667,173.1667,64.15,55,15,10.16
163,Panabá,21.2833,-88.2667,96.19,33,10,16.6
164,Māngrol,21.1167,70.1167,88.74,54,83,16.4
165,São João da Barra,-21.6403,-41.0511,77.38,71,55,12.26
166,Noumea,-22.2763,166.4572,74.75,67,7,15.82
167,Coahuayana Viejo,18.7333,-103.6833,89.64,47,4,9.31
168,Aklavik,68.2191,-135.0107,36.55,56,11,19.46
169,Olafsvik,64.8945,-23.7142,44.19,70,9,7.11
170,Geraldton,-28.7667,114.6,77.2,56,100,16.75
171,Coracora,-15.0333,-73.7833,58.05,38,100,11.05
172,Lavrentiya,65.5833,-171.0,27.57,90,16,7.87
173,Ørje,59.4802,11.6602,51.93,28,61,4.61
174,Novy Urengoy,66.0833,76.6333,32.09,91,96,9.17
175,Fonte Boa,-2.4959,-66.2662,76.46,93,100,4.52
176,Cidreira,-30.1811,-50.2056,68.43,67,88,14.79
177,Cherskiy,68.75,161.3,30.36,97,100,11.21
178,Almásfüzitő,47.7275,18.2615,59.13,50,100,11.25
179,Verāval,20.9,70.3667,89.26,52,81,17.16
180,Ixtapa,20.7,-105.2,88.39,47,22,9.82
181,Tiksi,71.6872,128.8694,31.78,84,16,10.94
182,Rundu,-17.9333,19.7667,89.44,28,30,7.72
183,Laguna,38.421,-121.4238,84.45,16,1,8.1
184,Batemans Bay,-35.7167,150.1833,67.55,68,53,6.33
185,Kuusamo,65.9667,29.1833,34.52,49,100,8.63
186,Iqaluit,63.7506,-68.5145,30.67,93,100,12.95
187,Morales,2.757,-76.6172,68.63,84,100,3
188,Lubao,14.9167,120.55,93.76,48,99,10.74
189,Arraial do Cabo,-22.9661,-42.0278,75.76,64,6,9.13
190,Almenara,-16.1836,-40.6944,87.64,50,13,4.9
191,Krasnosel'kup,65.7,82.4667,34.3,95,97,13.78
192,Pevek,69.7008,170.3133,25.5,81,100,11.14
193,Grindavik,63.8424,-22.4338,45.16,68,27,15.66
194,Puerto Escondido,15.85,-97.0667,88.05,61,59,11.18
195,Cururupu,-1.8283,-44.8683,86.77,62,100,5.95
196,Ancud,-41.8697,-73.8203,56.46,96,100,12.86
197,Lima,-12.0432,-77.0282,68.81,79,98,10.6
198,Russell,32.3502,-85.1999,84.33,48,63,8.57
199,Valle de Juárez,19.9333,-102.9333,85.55,18,24,12.19
200,Bull Savanna,17.8868,-77.5902,83.37,53,93,10.58
201,Longyearbyen,78.2186,15.6401,21.24,75,100,5.57
202,Kirensk,57.7853,108.1119,42.17,43,2,10.67
203,Kahului,20.8947,-156.47,77.88,69,40,6.35
204,Biak,-0.9131,122.8766,84.15,64,23,4.63
205,Saskylakh,71.9167,114.0833,34.56,84,92,12.48
206,Kandrian,-6.2167,149.55,79.83,85,100,5.73
207,Aripuanã,-9.1667,-60.6333,89.2,57,62,4.27
208,Mount Isa,-20.7333,139.5,85.91,28,0,16.02
209,Elk City,35.412,-99.4043,75.11,41,50,18.19
210,Río Gallegos,-51.6226,-69.2181,50.94,54,23,35.72
211,Gilgit,35.9221,74.3087,73.71,26,0,4.7
212,Waipawa,-41.4122,175.5153,58.84,60,0,4.7
213,Hong Kong,22.2855,114.1577,80.2,62,83,8.81
214,Sur,22.5667,59.5289,93.67,32,100,9.42
215,Port Augusta,-32.5,137.7667,77.25,37,2,9.89
216,Sobolevo,54.4299,31.8996,53.67,56,100,12.39
217,Kungurtug,50.5994,97.5228,48.02,65,72,15.93
218,Samarai,-10.6167,150.6667,80.4,72,100,15.12
219,Altamont,42.2068,-121.7372,67.75,27,29,4.32
220,Rocha,-34.4833,-54.3333,67.39,65,0,6.62
221,Pangnirtung,66.1451,-65.7125,34.27,68,100,8.23
222,Guantánamo,20.1444,-75.2092,92.52,34,5,15.52
223,Egvekinot,66.3167,-179.1667,22.3,96,100,6.15
224,Sambava,-14.2667,50.1667,83.23,68,9,14.16
225,Ponta do Sol,32.6667,-17.1,64.63,79,63,5.48
226,Arrondissement de Rennes,48.1667,-1.6667,58.37,48,95,10.22
227,Wuzhou,23.4833,111.3167,83.23,54,71,3.85
228,Namatanai,-3.6667,152.4333,85.73,69,83,11.41
229,Banihāl,33.4167,75.2,72.73,44,42,7.63
230,Abū Zabad,12.35,29.25,101.16,12,29,18.19
231,Abalak,58.1286,68.5944,52.23,33,95,16.15
232,Diamantino,-14.4086,-56.4461,83.82,58,4,7.58
233,San Cristobal,7.7669,-72.225,81.64,64,100,4.07
234,Iskateley,67.6803,53.1512,32.86,69,77,10.31
235,Santa Cruz de la Sierra,-17.8,-63.1667,77.79,38,100,10.45
236,Falkenberg,56.9055,12.4912,48.61,44,62,7.65
237,Aksu,41.1231,80.2644,84.79,9,0,6.89
238,Chui,-33.6971,-53.4616,67.96,59,0,6.82
239,Isabela,6.7085,121.9711,85.01,70,33,2.86
240,Talnakh,69.4865,88.3972,34.38,99,100,11.21
241,Tuktoyaktuk,69.4541,-133.0374,26.6,82,19,16.02
242,Sisimiut,66.9395,-53.6735,39.65,70,100,8.3
243,Campoverde,-8.4753,-74.8058,83.21,58,100,4.45
244,Nouadhibou,20.931,-17.0347,66.24,83,0,21
245,Nikolskoye,59.7035,30.7861,44.31,51,74,7.49
246,Port Lincoln,-34.7333,135.8667,71.87,42,10,7.23
247,Mehamn,71.0357,27.8492,28.02,65,100,16.78
248,Kargopol',61.5071,38.9456,42.37,63,100,9.24
249,Timmins,48.4669,-81.3331,59,41,100,7.45
250,Marawi,7.9986,124.2928,78.75,75,91,3.67
251,Atambua,-9.1061,124.8925,82.71,55,21,3.94
252,Phalodi,27.1333,72.3667,106.14,12,20,14.36
253,Kruisfontein,-34.0033,24.7314,74.01,45,52,12.03
254,Bantry,51.6833,-9.45,53.76,58,100,12.57
255,Aykhal,66.0,111.5,32.47,86,7,14.56
256,Dresden,51.0509,13.7383,62.42,47,20,9.98
257,Dābhol,17.6,73.1667,92.35,47,2,15.64
258,Zelenoborskiy,66.845,32.3622,34.23,52,100,10.4
259,Santa Cruz de Tenerife,28.4682,-16.2546,67.62,68,20,8.19
260,Panzhihua,26.5851,101.7128,82.96,44,88,4.29
261,Alexandria,31.2156,29.9553,75.04,42,0,12.84
262,Mirny,62.5353,113.9611,38.64,53,39,6.91
263,Qaqortoq,60.7167,-46.0333,44.6,74,21,9.66
264,Porto Real,-22.4197,-44.2903,76.82,78,81,6.82
265,Srednekolymsk,67.45,153.6833,29.84,93,91,7.27
266,Nanortalik,60.1432,-45.2371,37.78,85,13,8.12
267,Coquimbo,-29.9533,-71.3436,65.28,70,66,6.98
268,Maniitsoq,65.4167,-52.9,37.27,65,100,9.26
269,Ryde,50.73,-1.1621,50.49,74,39,21.72
270,Abonnema,4.7084,6.7931,83.75,75,100,8.3
271,Fortuna,40.5982,-124.1573,64.63,68,6,8.12
272,Kirksville,40.1948,-92.5833,71.87,76,95,11.74
273,Şabrātah,32.7933,12.4885,74.68,56,47,12.88
274,Hirado,33.3597,129.5531,64.08,71,100,16.82
275,Sakakah,29.9697,40.2064,90.97,12,0,8.84
276,Itzig,49.5842,6.1736,61.93,54,14,7.76
277,Karpogory,64.0019,44.4451,42.55,34,92,9.53
278,Alekseyevskaya,50.2896,42.1845,59.45,36,3,5.37
279,Hamilton,39.1834,-84.5333,76.93,65,99,11.27
280,San Quintín,30.4833,-115.95,65.43,57,0,14.12
281,Pisco,-13.7,-76.2167,69.87,77,90,8.48
282,Gaza,31.5,34.4667,78.87,50,1,19.44
283,Taltal,-25.4,-70.4833,67.93,69,2,7.09
284,Avera,33.194,-82.5271,82.15,53,87,9.78
285,Yanam,16.7333,82.2167,95.43,45,8,11.97
286,Port Elizabeth,-33.918,25.5701,72.32,61,81,13.96
287,Lüderitz,-26.6481,15.1594,71.15,58,0,21.03
288,Guerrero Negro,27.9769,-114.0611,67.98,54,0,19.84
289,Necochea,-38.5473,-58.7368,72.91,60,95,13.2
290,Evensk,61.95,159.2333,33.39,65,8,10.58
291,Kholm,59.2667,32.85,46.92,40,92,7.78
292,Seoul,37.5683,126.9778,70.12,23,23,14.27
293,Tocopilla,-22.092,-70.1979,71.29,65,2,8.43
294,Dingle,10.9995,122.6711,90.64,55,46,10.67
295,Dan Khun Thot,15.2085,101.7714,82.62,68,99,10.33
296,Mareeba,-17.0,145.4333,74.91,80,65,6.71
297,Hasaki,35.7333,140.8333,65.88,78,90,34.81
298,Stephenville,32.2207,-98.2023,80.01,77,90,21.59
299,Marabu,4.4148,114.0089,87.22,62,51,9.28
300,Camocim,-2.9022,-40.8411,84.81,68,82,11.92
301,Vila Franca do Campo,37.7167,-25.4333,62.42,77,100,9.35
302,Horconcitos,8.4682,-81.8007,84,43,66,5.82
303,Umluj,25.0213,37.2685,90.64,45,0,13.04
304,Haifa,32.8156,34.9892,77.49,60,1,19.04
305,La Seyne-sur-Mer,43.0982,5.8847,60.91,81,94,8.37
306,Rawson,-43.3002,-65.1023,65.64,34,100,12.46
307,General Roca,-39.0333,-67.5833,75.11,26,71,10.29
308,Yārāda,17.65,83.2667,87.67,65,25,16.46
309,Braço do Norte,-28.275,-49.1656,74.39,44,0,5.28
310,Waingapu,-9.6567,120.2641,84.29,50,28,7.67
311,Cordele,31.9635,-83.7824,83.8,54,87,10.83
312,Loíza,18.4313,-65.8802,79.77,69,92,12.93
313,Asău,46.4333,26.4,62.28,69,63,6.08
314,Gobabis,-22.45,18.9667,82.04,24,0,16.51
315,Roebourne,-20.7833,117.1333,92.08,22,0,13.29
316,Makkah al Mukarramah,21.4267,39.8261,100.76,23,0,15.5
317,Undory,54.6085,48.3928,48.31,61,34,15.79
318,Faya,18.3851,42.4509,69.93,38,11,13.38
319,Lowestoft,52.4752,1.7516,48.47,73,32,22.66
320,Khani,41.9563,42.9566,74.35,37,72,6.17
321,Playa del Carmen,20.6274,-87.0799,87.39,50,10,10.4
322,Igarka,67.4667,86.5833,33.42,99,99,11.25
323,Tamworth,52.634,-1.6959,50.86,58,97,18.1
324,Saint Stephen,50.3333,-4.9,48.2,83,95,16.46
325,Constitución,-35.3333,-72.4167,66.67,53,10,10.65
326,Camacha,33.0833,-16.3333,60.82,67,32,13.58
327,Sainte-Suzanne,-20.9061,55.6089,79.97,76,49,16.33
328,Thompson,55.7435,-97.8558,32.04,33,42,10.07
329,Labuhan,-6.8844,112.2051,86.59,64,53,7.61
330,San Rafael,-34.6177,-68.3301,75.56,35,0,17.29
331,Maceió,-9.6658,-35.7353,83.95,72,75,10.31
332,Phayao,19.25,100.25,93.6,40,11,5.44
333,Eufaula,31.8913,-85.1455,84.61,52,71,8.7
334,Nhamundá,-2.1861,-56.7131,84.4,80,94,3.15
335,Abhā,18.2164,42.5053,69.15,39,14,13.2
336,Hobyo,5.3505,48.5268,88.03,59,29,12.73
337,Auki,-8.7676,160.7034,82.6,70,51,6.85
338,Saldanha,-33.0117,17.9442,63.52,77,0,24.14
339,Jimeta,9.2833,12.4667,105.98,24,95,8.79
340,Bousso,10.4795,16.7117,106.92,4,99,8.21
341,Zenzeli,45.9241,47.0474,62.02,61,90,16.53
342,Kirkland Lake,48.1446,-80.0377,57.2,42,100,8.46
343,Sakaraha,-22.9,44.5333,91.4,36,0,5.82
344,Presidencia Roque Sáenz Peña,-26.7852,-60.4388,72.64,51,0,5.79
345,Torbay,47.6666,-52.7314,42.37,92,74,15.28
346,Ambulu,-8.345,113.6058,85.46,60,18,7.76
347,Kondinskoye,59.6481,67.41,48.96,81,100,17.81
348,Mingora,34.7758,72.3625,88.36,20,5,7.85
349,Husavik,66.0449,-17.3389,37.67,71,87,8.48
350,Novikovo,51.1537,37.8879,57.24,44,39,6.31
351,Beira,-19.8436,34.8389,85.3,62,22,11.14
352,Lagoa Formosa,-18.7786,-46.4075,85.5,42,11,6.33
353,Esperance,-33.8667,121.9,84.45,26,97,23.31
354,Codrington,-38.2667,141.9667,70.18,53,7,7.83
355,Zonguldak,41.25,31.8333,70.99,54,65,6.87
356,Bengkulu,-3.8004,102.2655,84.69,68,75,7.34
357,Itarema,-2.9248,-39.9167,85.69,66,73,12.93
358,Wenzhou,27.9994,120.6668,81.18,48,36,4.9
359,Ponta Delgada,37.7333,-25.6667,62.87,73,100,9.73
360,Chapais,49.7834,-74.8492,59,47,12,9.82
361,Muscat,23.6139,58.5922,95,45,50,10.69
362,Helong,42.5397,128.9972,60.98,23,56,13.6
363,Urucará,-2.5364,-57.76,82.98,92,100,4.16
364,Imeni Poliny Osipenko,52.4201,136.4853,36.97,97,100,15.64
365,Lagos,6.5833,3.75,91.27,56,92,9.78
366,Puerto Limón,10.0,-83.0333,84.2,67,100,6.73
367,Chiredzi,-21.05,31.6667,92.55,23,0,9.1
368,Alta Gracia,-31.6529,-64.4283,74.7,38,0,7.02
369,Saint George,37.1041,-113.5841,76.06,25,0,15.61
370,Bichura,50.5881,107.6022,48.33,28,99,7.61
371,Skjervøy,70.0311,20.9714,34.65,68,100,15.23
372,Farafangana,-22.8167,47.8333,79.57,74,18,7.92
373,Sioux Lookout,50.1001,-91.917,63.03,30,61,5.91
374,Haines Junction,60.7522,-137.5108,41.76,33,65,4.76
375,Bato,13.3528,123.3677,87.73,57,89,4.36
376,Nizhnekamsk,55.6366,51.8245,49.98,50,67,19.39
377,Forsytheganj,52.6333,29.7333,55.81,46,77,15.95
378,Raudeberg,61.9875,5.1352,40.93,59,12,23.64
379,Nizhniy Lomov,53.5304,43.6766,51.62,55,66,13.78
380,Taksimo,56.3444,114.8794,36.99,49,50,2.57
381,Smirnykh,49.75,142.8333,35.33,98,100,5.59
382,Bethal,-26.4579,29.4655,77.72,17,0,7.38
383,Roald,62.5833,6.1333,41.02,65,38,24.56
384,Coldingham,55.8868,-2.157,44.85,70,48,17.52
385,Mangai,-4.05,19.5333,92.37,49,75,3.94
386,Manhattan,40.7834,-73.9662,79.43,46,100,13.22
387,College,64.8569,-147.8028,50.81,28,44,5.82
388,Mayya,61.7333,130.2811,36.37,70,64,3.83
389,Manadhoo,5.7667,73.3833,84.56,72,44,8.75
390,Siderno,38.2779,16.302,71.87,59,89,7.72
391,Champerico,14.3,-91.9167,87.55,57,77,13.33
392,Tahlequah,35.9154,-94.97,72.21,92,88,12.21
393,Corinth,37.9407,22.9573,82.6,33,55,8.5
394,Indianola,41.3581,-93.5574,67.19,70,98,11.1
395,Kenai,60.5544,-151.2583,55.4,38,1,7.96
396,Westport,41.1415,-73.3579,67.87,57,95,8.01
397,Obo,5.3998,26.4869,95.67,37,86,11.12
398,Panji,-7.7253,114.0995,87.51,55,8,8.28
399,Barra Velha,-26.6322,-48.6847,75.29,54,61,7.72
400,Gouyave,12.1646,-61.7296,82.4,74,62,15.75
401,Sumkino,58.1108,68.3244,52.45,34,97,16.69
402,Mbanza-Ngungu,-5.25,14.8667,76.26,94,100,4.79
403,Northam,51.0333,-4.2167,45.72,95,100,18.52
404,Quelimane,-17.8786,36.8883,88,53,3,8.93
405,Grand Bank,47.0999,-55.765,40.48,94,100,17.72
406,Stromness,58.965,-3.296,44.11,87,85,19.08
407,Borogontsy,62.6683,131.1683,35.01,83,65,3.6
408,Porto Nacional,-10.7081,-48.4172,85.71,74,57,4.72
409,North Bend,43.4065,-124.2243,64.13,64,33,9.33
410,Dingcheng,32.1272,115.0394,83.44,44,23,24.9
411,Tres Arroyos,-38.3739,-60.2798,76.5,51,66,12.12
412,Canavieiras,-15.675,-38.9472,83.52,64,50,6.89
413,Yuncheng,35.0231,110.9928,81.64,19,32,21.14
414,Harper,4.375,-7.7169,85.44,69,77,9.91
415,Hervey Bay,-25.2986,152.8535,74.75,68,82,18.12
416,Broken Hill,-31.95,141.4333,71.92,35,0,9.48
417,Boguchany,58.3814,97.4531,46.33,56,100,10.67
418,Surgut,61.25,73.4167,49.77,57,100,12.1
419,Sombrio,-29.1139,-49.6167,72.52,49,11,11.97
420,Yinchuan,38.4681,106.2731,72.37,16,82,16.64
421,Isiro,2.7739,27.616,88.61,58,100,5.75
422,Kununurra,-15.7667,128.7333,95.76,28,0,15.59
423,Dukat,62.55,155.55,32.34,70,100,3.98
424,Fethiye,36.6217,29.1164,81.09,30,76,8.97
425,Enköping,59.6361,17.0777,46.38,41,72,7.29
426,Karratha,-20.7377,116.8463,93.04,23,0,13.96
427,Sydney,-33.8679,151.2073,68.7,67,6,10.25
428,Adrar,20.5022,-10.0711,99.27,15,89,15.39
429,Muisne,0.6,-80.0333,80.64,79,96,7.05
430,Biltine,14.5333,20.9167,101.62,7,28,22.68
431,Riviere-au-Renard,48.9957,-64.3971,48.2,95,100,12.86
432,Kerman,30.2832,57.0788,81.41,15,51,19.89
433,May Pen,17.9645,-77.2451,92.03,35,69,13.09
434,Virginia Beach,36.8529,-75.978,86.36,60,98,16.78
435,Seymchan,62.8833,152.4333,34.63,91,82,5.21
436,Litovko,49.2361,135.1742,57.76,51,82,17.6
437,Kousséri,12.0769,15.0306,105.17,5,38,13.51
438,Jieshou,33.2634,115.3611,82.74,42,41,25.14
439,Shimoda,34.6667,138.95,65.88,85,100,32.37
440,Banjar,-8.19,114.9675,88.12,56,16,4.41
441,Natal,-5.795,-35.2094,86.05,62,56,11.79
442,Pierre,44.3683,-100.351,68,35,31,8.21
443,Zhemtala,43.2841,43.6559,63.95,62,95,8.21
444,Bilma,18.6853,12.9164,103.32,6,0,10.58
445,Muros,42.7762,-9.0603,59.74,56,4,17
446,Salalah,17.0151,54.0924,87.8,60,76,13.2
447,Sørland,67.667,12.6934,37.71,69,84,18.72
448,Port Keats,-14.25,129.55,93.06,54,3,9.46
449,Zhigansk,66.7697,123.3711,32.36,97,30,5.35
450,Darhan,49.4867,105.9228,45.66,56,100,13.4
451,Kirakira,-10.4544,161.9205,83.35,63,44,6.58
452,Arlit,18.7369,7.3853,106.95,5,0,11.25
453,Severobaykal'sk,55.65,109.3167,33.4,59,7,6.4
454,São Filipe,14.8961,-24.4956,74.37,74,2,14.61
455,Enid,36.3956,-97.8784,76.26,64,87,17.09
456,Acapulco de Juárez,16.8634,-99.8901,86.67,57,49,11.41
457,Muskegon,43.3,-86.1334,60.85,77,100,11.59
458,Tual,-5.6667,132.75,83.86,68,100,8.37
459,Carballo,43.213,-8.691,55.29,67,69,9.64
460,Bairiki Village,1.3292,172.9752,84.2,76,84,11.03
461,Saint-Augustin,51.226,-58.6502,43.36,96,100,7.16
462,Meulaboh,4.1363,96.1285,85.8,66,80,9.15
463,Varėna,54.2167,24.5667,57.42,52,100,10.29
464,Ransang,8.9603,117.5828,86.58,66,91,6.42
465,Morgan City,29.6994,-91.2068,84.43,57,76,15.48
466,Shelburne,44.0787,-80.2041,60.19,94,100,15.43
467,Port-Gentil,-0.7193,8.7815,83.59,76,100,15.5
468,Caesarea,32.5189,34.9046,79.97,47,5,18.43
469,Matara,5.9485,80.5353,87.69,61,65,11.32
470,Hualmay,-11.0964,-77.6139,70.81,78,91,11.23
471,Arauco,-37.2463,-73.3175,66.45,54,82,5.35
472,Harar,9.3094,42.1258,71.24,61,81,5.86
473,Ewo,-0.8725,14.8206,87.42,73,100,5.66
474,Rovaniemi,66.5,25.7167,37.09,49,55,10.27
475,Kumul,42.8,93.45,88.61,11,65,13.44
476,Nuuk,64.1835,-51.7216,37.74,67,100,10.96
477,Nizhniy Kuranakh,58.8353,125.4869,33.51,90,100,10.67
478,Sheridan,44.8333,-106.9173,64.56,34,48,13.91
479,Oistins,13.0667,-59.5333,80.13,72,100,18.9
480,Richards Bay,-28.783,32.0377,78.42,63,45,12.77
481,Mawlaik,23.6333,94.4167,107.53,20,6,5.44
482,Valleyview,55.0667,-117.2859,34.02,87,100,7.34
483,Nagato,34.3833,131.2,64.69,87,100,10.67
484,Neyvo-Shaytanskiy,57.7286,61.2496,48.81,53,100,14.23
485,Gamba,-2.65,10.0,86.95,64,100,9.48
486,Malbork,54.0359,19.0266,54.73,49,10,9.22
487,Aden,12.7794,45.0367,86.32,68,14,11.43
488,Caucayá,-0.1934,-74.7819,81.57,85,99,3.11
489,Kovdor,67.5662,30.4758,32.05,56,100,11.43
490,Ganzhou,28.8184,115.4327,79.57,51,83,11.45
491,Marsh Harbour,26.5412,-77.0636,75.92,66,88,17.45
492,Lieksa,63.3167,30.0167,36.84,64,88,6.78
493,Botou,38.0667,116.5667,73.83,14,99,18.37
494,Gusau,12.1628,6.6614,104.5,19,32,12.21
495,Rayong,12.8333,101.4333,81.37,77,99,6.44
496,Capreol,46.706,-80.9225,45.84,94,100,9.06
497,Imbituba,-28.24,-48.6703,71.96,54,0,13.96
498,Morón,-34.6534,-58.6198,70.77,56,0,6.13
499,Djibo,14.1022,-1.6306,107.8,14,64,11.41
500,Mossamedes,-15.1961,12.1522,83.7,53,45,15.61
501,Cockburn Town,21.4612,-71.1419,82.4,75,13,21.77
502,Agirish,61.9247,63.0231,43.57,86,100,9.93
503,Los Llanos de Aridane,28.6585,-17.9182,64,69,100,4.38
504,Peniche,39.3558,-9.3811,61.92,79,78,21.09
505,Gaoual,11.75,-13.2,108.3,16,65,8.95
506,Quatre Cocos,-20.2078,57.7625,78.1,81,51,18.28
507,Shingū,33.7333,135.9833,63.54,92,100,17.05
508,Mokobeng,-22.9965,27.6678,88.88,11,0,8.21
509,Ustyuzhna,58.8394,36.4321,45.63,45,99,8.97
510,Kalmthout,51.3846,4.4742,63.97,44,97,10.78
511,Beringovskiy,63.05,179.3167,30.45,74,5,6.6
512,Totness,5.8833,-56.3167,82.76,72,100,9.62
513,Campo Grande,-20.4428,-54.6464,83.89,25,0,9.28
514,Young,-32.6833,-57.6333,69.6,57,0,4.47
515,Pak Phanang,8.3511,100.202,86.38,67,89,7.81
516,Verín,41.9415,-7.4381,59.38,84,86,7.29
517,Dobson,36.3957,-80.7226,81.57,44,66,11.01
518,San Juan,-31.5375,-68.5364,77.95,34,0,7.92
519,Muravlenko,63.7898,74.523,39.96,87,100,14.09
520,Abdulino,53.7,53.6667,50.74,55,100,14.16
521,Pīpār,26.3856,73.5378,105.6,13,48,24.36
522,Tezu,27.9167,96.1667,103.21,16,61,5.55
523,Clyde River,70.4692,-68.5914,21.45,75,0,7.78
524,Henties Bay,-22.116,14.2845,67.86,71,2,13.11
525,Oussouye,12.485,-16.5469,95.99,23,96,17.58
526,Simao,22.7886,100.9748,80.74,57,19,4.14
527,Karaman Province,37.0833,33.25,78.64,22,98,13.18
528,Urengoy,65.9667,78.3667,33.28,100,100,10.51
529,La Macarena,2.1837,-73.7849,83.19,66,95,6.17
530,Mazamari,-11.3258,-74.5308,79.97,76,100,2.17
531,Marzuq,14.4,46.4667,83.17,46,20,9.48
532,Tura,25.5198,90.2201,101.39,20,3,10
533,Iberia,29.9502,-91.7507,82.8,64,58,19.35
534,Sokoni,-6.4333,39.55,80.01,81,100,12.71
535,Tazovsky,67.4667,78.7,32,96,98,6.82
536,Birjand,32.8663,59.2211,87.03,12,95,15.5
537,Balsthal,47.3161,7.6932,62.46,87,100,10.92
538,Aras,42.5617,-2.356,59.9,55,69,7.45
539,Vanimo,-2.6741,141.3028,87.31,65,53,8.7
540,Nova Viçosa,-17.8919,-39.3719,82.78,60,24,8.46
541,Comodoro Rivadavia,-45.8667,-67.5,64.4,42,100,26.13
542,Woodward,36.4337,-99.3904,71.89,48,38,18.68
543,Sousse,35.8254,10.637,72.28,50,69,13.2
544,Rosa Zarate,0.3333,-79.4667,81.66,81,99,5.12
545,Boa Vista,2.8197,-60.6733,89.6,72,100,4.9
546,Sainte-Maxime,43.3,6.6333,61.05,77,97,6.8
547,Puerto Carreño,6.189,-67.4859,85.26,64,95,6.31
548,Abejorral,5.7893,-75.4273,60.21,92,99,2.48
549,Oddur,4.1213,43.8894,91.38,42,24,11.39
550,Nosy Varika,-20.5833,48.5333,79.86,71,17,7
551,Kiryat Gat,31.61,34.7642,89.4,27,1,17.22
552,Weyburn,49.6668,-103.8511,53.28,56,97,14.2
553,Dzilam González,21.2833,-88.9333,96.3,38,4,12.35
554,Atar,20.5169,-13.0499,100.13,17,4,13.94
555,Ban Dung,17.699,103.2596,81.64,90,100,13.09
556,Santiago de Cuba,20.0247,-75.8219,89.6,41,7,10.42
557,Payo,-3.7508,103.6372,92.39,50,66,3
558,Novooleksiyivka,46.2269,34.6428,57.06,74,100,17.47
